{
  "generated": "2025-09-08T13:37:47.596Z",
  "center": {
    "lat": -28.003,
    "lng": 153.41
  },
  "radiusKm": 50,
  "count": 224,
  "suburbs": [
    {
      "id": 9088,
      "name": "Evandale",
      "postcode": "4217",
      "state": "QLD",
      "latitude": -28.0028308,
      "longitude": 153.4150992,
      "distanceKm": 0.5,
      "direction": "E",
      "population": null
    },
    {
      "id": 8890,
      "name": "Bundall",
      "postcode": "4217",
      "state": "QLD",
      "latitude": -28.0112822,
      "longitude": 153.4080912,
      "distanceKm": 0.94,
      "direction": "S",
      "population": 4895
    },
    {
      "id": 9052,
      "name": "Sorrento",
      "postcode": "4217",
      "state": "QLD",
      "latitude": -28.0141091,
      "longitude": 153.4074045,
      "distanceKm": 1.26,
      "direction": "S",
      "population": null
    },
    {
      "id": 7719,
      "name": "Surfers Paradise",
      "postcode": "4217",
      "state": "QLD",
      "latitude": -27.9989899,
      "longitude": 153.42398,
      "distanceKm": 1.45,
      "direction": "E",
      "population": null
    },
    {
      "id": 9089,
      "name": "Budds Beach",
      "postcode": "4217",
      "state": "QLD",
      "latitude": -27.993189,
      "longitude": 153.4243536,
      "distanceKm": 1.78,
      "direction": "NE",
      "population": null
    },
    {
      "id": 9051,
      "name": "Rialto",
      "postcode": "4218",
      "state": "QLD",
      "latitude": -28.0202313,
      "longitude": 153.4095696,
      "distanceKm": 1.91,
      "direction": "S",
      "population": null
    },
    {
      "id": 9048,
      "name": "Rio Vista",
      "postcode": "4218",
      "state": "QLD",
      "latitude": -28.0196978,
      "longitude": 153.4167007,
      "distanceKm": 1.96,
      "direction": "S",
      "population": null
    },
    {
      "id": 9090,
      "name": "Northcliffe",
      "postcode": "4218",
      "state": "QLD",
      "latitude": -28.0101443,
      "longitude": 153.4306385,
      "distanceKm": 2.18,
      "direction": "E",
      "population": null
    },
    {
      "id": 9068,
      "name": "Paradise Waters",
      "postcode": "4217",
      "state": "QLD",
      "latitude": -27.9866923,
      "longitude": 153.4226155,
      "distanceKm": 2.19,
      "direction": "NE",
      "population": null
    },
    {
      "id": 9087,
      "name": "Keebra Park",
      "postcode": "4215",
      "state": "QLD",
      "latitude": -27.9841191,
      "longitude": 153.398917,
      "distanceKm": 2.36,
      "direction": "NW",
      "population": null
    },
    {
      "id": 9049,
      "name": "Florida Gardens",
      "postcode": "4218",
      "state": "QLD",
      "latitude": -28.0206684,
      "longitude": 153.4248162,
      "distanceKm": 2.44,
      "direction": "SE",
      "population": null
    },
    {
      "id": 8937,
      "name": "Benowa",
      "postcode": "4217",
      "state": "QLD",
      "latitude": -28.0041744,
      "longitude": 153.3834595,
      "distanceKm": 2.61,
      "direction": "W",
      "population": 9889
    },
    {
      "id": 9086,
      "name": "Benowa Waters",
      "postcode": "4218",
      "state": "QLD",
      "latitude": -28.0209061,
      "longitude": 153.3913645,
      "distanceKm": 2.7,
      "direction": "SW",
      "population": null
    },
    {
      "id": 9069,
      "name": "Narrowneck",
      "postcode": "4217",
      "state": "QLD",
      "latitude": -27.985726,
      "longitude": 153.4298038,
      "distanceKm": 2.73,
      "direction": "NE",
      "population": null
    },
    {
      "id": 9046,
      "name": "Broadbeach",
      "postcode": "4218",
      "state": "QLD",
      "latitude": -28.0235886,
      "longitude": 153.4293335,
      "distanceKm": 2.97,
      "direction": "SE",
      "population": null
    },
    {
      "id": 9058,
      "name": "Cypress Gardens",
      "postcode": "4218",
      "state": "QLD",
      "latitude": -28.0290425,
      "longitude": 153.3978264,
      "distanceKm": 3.12,
      "direction": "SW",
      "population": null
    },
    {
      "id": 8934,
      "name": "Main Beach",
      "postcode": "4217",
      "state": "QLD",
      "latitude": -27.9787768,
      "longitude": 153.4271228,
      "distanceKm": 3.17,
      "direction": "NE",
      "population": 3998
    },
    {
      "id": 9047,
      "name": "Broadbeach Waters",
      "postcode": "4218",
      "state": "QLD",
      "latitude": -28.0316652,
      "longitude": 153.4122307,
      "distanceKm": 3.18,
      "direction": "S",
      "population": 8164
    },
    {
      "id": 9050,
      "name": "Miami Keys",
      "postcode": "4218",
      "state": "QLD",
      "latitude": -28.0307149,
      "longitude": 153.4208136,
      "distanceKm": 3.25,
      "direction": "S",
      "population": null
    },
    {
      "id": 9043,
      "name": "Zarraffas;Cypress Gardens",
      "postcode": "4218",
      "state": "QLD",
      "latitude": -28.031022,
      "longitude": 153.3936508,
      "distanceKm": 3.5,
      "direction": "SW",
      "population": null
    },
    {
      "id": 8889,
      "name": "Ashmore",
      "postcode": "4214",
      "state": "QLD",
      "latitude": -27.9909266,
      "longitude": 153.3770522,
      "distanceKm": 3.51,
      "direction": "W",
      "population": 12415
    },
    {
      "id": 8933,
      "name": "Southport",
      "postcode": "4215",
      "state": "QLD",
      "latitude": -27.9687807,
      "longitude": 153.4066696,
      "distanceKm": 3.81,
      "direction": "N",
      "population": null
    },
    {
      "id": 10984,
      "name": "Chinatown",
      "postcode": "4215",
      "state": "QLD",
      "latitude": -27.9686607,
      "longitude": 153.4133322,
      "distanceKm": 3.82,
      "direction": "N",
      "population": null
    },
    {
      "id": 9085,
      "name": "Kurrawa",
      "postcode": "4218",
      "state": "QLD",
      "latitude": -28.0292755,
      "longitude": 153.4352993,
      "distanceKm": 3.83,
      "direction": "SE",
      "population": null
    },
    {
      "id": 7718,
      "name": "Carrara",
      "postcode": "4211",
      "state": "QLD",
      "latitude": -28.02077,
      "longitude": 153.3683962,
      "distanceKm": 4.54,
      "direction": "SW",
      "population": 13147
    },
    {
      "id": 10901,
      "name": "Lake Intrepid",
      "postcode": "4218",
      "state": "QLD",
      "latitude": -28.0432025,
      "longitude": 153.4198934,
      "distanceKm": 4.56,
      "direction": "S",
      "population": null
    },
    {
      "id": 8935,
      "name": "Molendinar",
      "postcode": "4214",
      "state": "QLD",
      "latitude": -27.9745778,
      "longitude": 153.3754344,
      "distanceKm": 4.63,
      "direction": "NW",
      "population": 6450
    },
    {
      "id": 8941,
      "name": "Clear Island Waters",
      "postcode": "4226",
      "state": "QLD",
      "latitude": -28.0437627,
      "longitude": 153.3985228,
      "distanceKm": 4.66,
      "direction": "S",
      "population": 4395
    },
    {
      "id": 9070,
      "name": "The Spit",
      "postcode": "4217",
      "state": "QLD",
      "latitude": -27.9638337,
      "longitude": 153.4275416,
      "distanceKm": 4.67,
      "direction": "NE",
      "population": null
    },
    {
      "id": 9082,
      "name": "Musgrave Hill",
      "postcode": "4215",
      "state": "QLD",
      "latitude": -27.9602163,
      "longitude": 153.4002452,
      "distanceKm": 4.84,
      "direction": "N",
      "population": null
    },
    {
      "id": 9084,
      "name": "Parklands",
      "postcode": "4560",
      "state": "QLD",
      "latitude": -27.9628697,
      "longitude": 153.3854823,
      "distanceKm": 5.06,
      "direction": "NW",
      "population": null
    },
    {
      "id": 9083,
      "name": "Chirn Park",
      "postcode": "4215",
      "state": "QLD",
      "latitude": -27.9561413,
      "longitude": 153.401082,
      "distanceKm": 5.27,
      "direction": "N",
      "population": null
    },
    {
      "id": 7771,
      "name": "Mermaid Beach",
      "postcode": "4218",
      "state": "QLD",
      "latitude": -28.0447106,
      "longitude": 153.4373204,
      "distanceKm": 5.35,
      "direction": "SE",
      "population": null
    },
    {
      "id": 7772,
      "name": "Mermaid Waters",
      "postcode": "4218",
      "state": "QLD",
      "latitude": -28.0513,
      "longitude": 153.4191232,
      "distanceKm": 5.43,
      "direction": "S",
      "population": 13205
    },
    {
      "id": 10891,
      "name": "Robina Quays",
      "postcode": "4226",
      "state": "QLD",
      "latitude": -28.0589399,
      "longitude": 153.4008224,
      "distanceKm": 6.26,
      "direction": "S",
      "population": null
    },
    {
      "id": 8940,
      "name": "Merrimac",
      "postcode": "4226",
      "state": "QLD",
      "latitude": -28.0524361,
      "longitude": 153.3743615,
      "distanceKm": 6.5,
      "direction": "SW",
      "population": 7210
    },
    {
      "id": 10892,
      "name": "Robina Waters",
      "postcode": "4218",
      "state": "QLD",
      "latitude": -28.0635668,
      "longitude": 153.4131216,
      "distanceKm": 6.72,
      "direction": "S",
      "population": null
    },
    {
      "id": 8418,
      "name": "Labrador",
      "postcode": "4215",
      "state": "QLD",
      "latitude": -27.9427642,
      "longitude": 153.3987125,
      "distanceKm": 6.77,
      "direction": "N",
      "population": 18643
    },
    {
      "id": 9072,
      "name": "Nobby Beach",
      "postcode": "4218",
      "state": "QLD",
      "latitude": -28.0591422,
      "longitude": 153.4392132,
      "distanceKm": 6.85,
      "direction": "SE",
      "population": null
    },
    {
      "id": 7717,
      "name": "Nerang",
      "postcode": "4211",
      "state": "QLD",
      "latitude": -27.9896566,
      "longitude": 153.3365942,
      "distanceKm": 7.37,
      "direction": "W",
      "population": null
    },
    {
      "id": 7755,
      "name": "Miami",
      "postcode": "4220",
      "state": "QLD",
      "latitude": -28.0680039,
      "longitude": 153.4377915,
      "distanceKm": 7.7,
      "direction": "SE",
      "population": 7445
    },
    {
      "id": 8939,
      "name": "Worongary",
      "postcode": "4213",
      "state": "QLD",
      "latitude": -28.0360735,
      "longitude": 153.339128,
      "distanceKm": 7.87,
      "direction": "SW",
      "population": null
    },
    {
      "id": 10889,
      "name": "Robina Woods",
      "postcode": "4226",
      "state": "QLD",
      "latitude": -28.0763253,
      "longitude": 153.401978,
      "distanceKm": 8.16,
      "direction": "S",
      "population": null
    },
    {
      "id": 7756,
      "name": "Robina",
      "postcode": "4226",
      "state": "QLD",
      "latitude": -28.0751722,
      "longitude": 153.3913156,
      "distanceKm": 8.21,
      "direction": "S",
      "population": null
    },
    {
      "id": 8938,
      "name": "Highland Park",
      "postcode": "4211",
      "state": "QLD",
      "latitude": -28.011487,
      "longitude": 153.3249552,
      "distanceKm": 8.42,
      "direction": "W",
      "population": 8433
    },
    {
      "id": 8931,
      "name": "Gaven",
      "postcode": "4211",
      "state": "QLD",
      "latitude": -27.9601034,
      "longitude": 153.3387257,
      "distanceKm": 8.47,
      "direction": "NW",
      "population": null
    },
    {
      "id": 7773,
      "name": "Varsity Lakes",
      "postcode": "4227",
      "state": "QLD",
      "latitude": -28.0792975,
      "longitude": 153.4143928,
      "distanceKm": 8.47,
      "direction": "S",
      "population": 16639
    },
    {
      "id": 8416,
      "name": "Biggera Waters",
      "postcode": "4216",
      "state": "QLD",
      "latitude": -27.9271595,
      "longitude": 153.3983923,
      "distanceKm": 8.48,
      "direction": "N",
      "population": 9973
    },
    {
      "id": 9079,
      "name": "Lands End",
      "postcode": "4216",
      "state": "QLD",
      "latitude": -27.9259723,
      "longitude": 153.4061487,
      "distanceKm": 8.54,
      "direction": "N",
      "population": null
    },
    {
      "id": 8930,
      "name": "Arundel",
      "postcode": "4214",
      "state": "QLD",
      "latitude": -27.9360655,
      "longitude": 153.3653514,
      "distanceKm": 8.62,
      "direction": "NW",
      "population": 11171
    },
    {
      "id": 9080,
      "name": "Anglers Paradise",
      "postcode": "4216",
      "state": "QLD",
      "latitude": -27.9249959,
      "longitude": 153.4031553,
      "distanceKm": 8.67,
      "direction": "N",
      "population": null
    },
    {
      "id": 9054,
      "name": "North Burleigh",
      "postcode": "4220",
      "state": "QLD",
      "latitude": -28.0744364,
      "longitude": 153.4466021,
      "distanceKm": 8.7,
      "direction": "SE",
      "population": null
    },
    {
      "id": 10893,
      "name": "Robina Dales",
      "postcode": "4226",
      "state": "QLD",
      "latitude": -28.0812004,
      "longitude": 153.3932102,
      "distanceKm": 8.82,
      "direction": "S",
      "population": null
    },
    {
      "id": 10890,
      "name": "Robina Groves",
      "postcode": "4226",
      "state": "QLD",
      "latitude": -28.088625,
      "longitude": 153.3949352,
      "distanceKm": 9.6,
      "direction": "S",
      "population": null
    },
    {
      "id": 8103,
      "name": "Mudgeeraba",
      "postcode": "4213",
      "state": "QLD",
      "latitude": -28.0804969,
      "longitude": 153.3576679,
      "distanceKm": 10.01,
      "direction": "SW",
      "population": null
    },
    {
      "id": 8419,
      "name": "Runaway Bay",
      "postcode": "4216",
      "state": "QLD",
      "latitude": -27.9122419,
      "longitude": 153.4029513,
      "distanceKm": 10.08,
      "direction": "N",
      "population": 9308
    },
    {
      "id": 7774,
      "name": "Burleigh Waters",
      "postcode": "4220",
      "state": "QLD",
      "latitude": -28.0931614,
      "longitude": 153.4358054,
      "distanceKm": 10.31,
      "direction": "S",
      "population": 14413
    },
    {
      "id": 9063,
      "name": "Gilston",
      "postcode": "4211",
      "state": "QLD",
      "latitude": -28.0296857,
      "longitude": 153.3077372,
      "distanceKm": 10.48,
      "direction": "W",
      "population": null
    },
    {
      "id": 9091,
      "name": "Tallai",
      "postcode": "4213",
      "state": "QLD",
      "latitude": -28.0730154,
      "longitude": 153.3330328,
      "distanceKm": 10.84,
      "direction": "SW",
      "population": null
    },
    {
      "id": 9053,
      "name": "Koala Park",
      "postcode": "4220",
      "state": "QLD",
      "latitude": -28.0976798,
      "longitude": 153.4526204,
      "distanceKm": 11.3,
      "direction": "SE",
      "population": null
    },
    {
      "id": 8431,
      "name": "Burleigh Heads",
      "postcode": "4220",
      "state": "QLD",
      "latitude": -28.1021343,
      "longitude": 153.4395799,
      "distanceKm": 11.36,
      "direction": "S",
      "population": 9176
    },
    {
      "id": 9064,
      "name": "Latimer's Crossing",
      "postcode": "4211",
      "state": "QLD",
      "latitude": -28.0264003,
      "longitude": 153.2974711,
      "distanceKm": 11.37,
      "direction": "W",
      "population": null
    },
    {
      "id": 8932,
      "name": "Coombabah",
      "postcode": "4216",
      "state": "QLD",
      "latitude": -27.9058415,
      "longitude": 153.3722586,
      "distanceKm": 11.39,
      "direction": "N",
      "population": 10298
    },
    {
      "id": 9092,
      "name": "The Panorama",
      "postcode": "4213",
      "state": "QLD",
      "latitude": -28.0620068,
      "longitude": 153.3116198,
      "distanceKm": 11.68,
      "direction": "SW",
      "population": null
    },
    {
      "id": 8417,
      "name": "Hollywell",
      "postcode": "4216",
      "state": "QLD",
      "latitude": -27.895707,
      "longitude": 153.3991084,
      "distanceKm": 11.94,
      "direction": "N",
      "population": null
    },
    {
      "id": 9078,
      "name": "Pacific Pines",
      "postcode": "4211",
      "state": "QLD",
      "latitude": -27.9382489,
      "longitude": 153.3092643,
      "distanceKm": 12.24,
      "direction": "NW",
      "population": null
    },
    {
      "id": 9055,
      "name": "West Burleigh",
      "postcode": "4219",
      "state": "QLD",
      "latitude": -28.1107626,
      "longitude": 153.4392919,
      "distanceKm": 12.28,
      "direction": "S",
      "population": null
    },
    {
      "id": 9081,
      "name": "The Observatory",
      "postcode": "4227",
      "state": "QLD",
      "latitude": -28.1145731,
      "longitude": 153.3933386,
      "distanceKm": 12.47,
      "direction": "S",
      "population": null
    },
    {
      "id": 8102,
      "name": "Advancetown",
      "postcode": "4211",
      "state": "QLD",
      "latitude": -28.0255182,
      "longitude": 153.2828917,
      "distanceKm": 12.75,
      "direction": "W",
      "population": null
    },
    {
      "id": 9077,
      "name": "Studio Village",
      "postcode": "4210",
      "state": "QLD",
      "latitude": -27.9214914,
      "longitude": 153.3165133,
      "distanceKm": 12.89,
      "direction": "NW",
      "population": null
    },
    {
      "id": 8114,
      "name": "Paradise Point",
      "postcode": "4216",
      "state": "QLD",
      "latitude": -27.8862745,
      "longitude": 153.3957227,
      "distanceKm": 13.01,
      "direction": "N",
      "population": null
    },
    {
      "id": 7850,
      "name": "Ephraim Island",
      "postcode": "4216",
      "state": "QLD",
      "latitude": -27.8856326,
      "longitude": 153.4020286,
      "distanceKm": 13.03,
      "direction": "N",
      "population": null
    },
    {
      "id": 8936,
      "name": "Reedy Creek",
      "postcode": "4227",
      "state": "QLD",
      "latitude": -28.1205111,
      "longitude": 153.4032864,
      "distanceKm": 13.04,
      "direction": "S",
      "population": null
    },
    {
      "id": 7716,
      "name": "Helensvale",
      "postcode": "4212",
      "state": "QLD",
      "latitude": -27.9053051,
      "longitude": 153.3324585,
      "distanceKm": 13.25,
      "direction": "NW",
      "population": 18949
    },
    {
      "id": 7851,
      "name": "The Sovereign Islands",
      "postcode": "4216",
      "state": "QLD",
      "latitude": -27.8794234,
      "longitude": 153.4027104,
      "distanceKm": 13.71,
      "direction": "N",
      "population": null
    },
    {
      "id": 9073,
      "name": "Mount Nathan",
      "postcode": "4211",
      "state": "QLD",
      "latitude": -27.9944964,
      "longitude": 153.2698271,
      "distanceKm": 13.82,
      "direction": "W",
      "population": null
    },
    {
      "id": 7775,
      "name": "Palm Beach",
      "postcode": "4221",
      "state": "QLD",
      "latitude": -28.1194259,
      "longitude": 153.4702686,
      "distanceKm": 14.2,
      "direction": "SE",
      "population": 16349
    },
    {
      "id": 8433,
      "name": "Elanora",
      "postcode": "4221",
      "state": "QLD",
      "latitude": -28.126998,
      "longitude": 153.4591428,
      "distanceKm": 14.57,
      "direction": "S",
      "population": 12539
    },
    {
      "id": 9045,
      "name": "Bonogin",
      "postcode": "4213",
      "state": "QLD",
      "latitude": -28.1277689,
      "longitude": 153.3604583,
      "distanceKm": 14.66,
      "direction": "S",
      "population": null
    },
    {
      "id": 10935,
      "name": "Boykambil",
      "postcode": "4212",
      "state": "QLD",
      "latitude": -27.8736511,
      "longitude": 153.3646749,
      "distanceKm": 15.01,
      "direction": "N",
      "population": null
    },
    {
      "id": 9071,
      "name": "Maudsland",
      "postcode": "4210",
      "state": "QLD",
      "latitude": -27.9280622,
      "longitude": 153.2823303,
      "distanceKm": 15.06,
      "direction": "NW",
      "population": null
    },
    {
      "id": 8115,
      "name": "Tallebudgera",
      "postcode": "4228",
      "state": "QLD",
      "latitude": -28.1401272,
      "longitude": 153.428695,
      "distanceKm": 15.31,
      "direction": "S",
      "population": null
    },
    {
      "id": 7715,
      "name": "Oxenford",
      "postcode": "4210",
      "state": "QLD",
      "latitude": -27.9015337,
      "longitude": 153.2997577,
      "distanceKm": 15.62,
      "direction": "NW",
      "population": null
    },
    {
      "id": 9177,
      "name": "Hope Island Resort",
      "postcode": "4212",
      "state": "QLD",
      "latitude": -27.8717682,
      "longitude": 153.3513146,
      "distanceKm": 15.65,
      "direction": "NW",
      "population": null
    },
    {
      "id": 9065,
      "name": "River Links",
      "postcode": "4209",
      "state": "QLD",
      "latitude": -27.8796779,
      "longitude": 153.3230769,
      "distanceKm": 16.12,
      "direction": "NW",
      "population": null
    },
    {
      "id": 9066,
      "name": "Hope Island",
      "postcode": "4212",
      "state": "QLD",
      "latitude": -27.8651137,
      "longitude": 153.357731,
      "distanceKm": 16.12,
      "direction": "N",
      "population": 14665
    },
    {
      "id": 8432,
      "name": "Currumbin",
      "postcode": "4223",
      "state": "QLD",
      "latitude": -28.1369655,
      "longitude": 153.4799277,
      "distanceKm": 16.36,
      "direction": "SE",
      "population": null
    },
    {
      "id": 9056,
      "name": "Clagiraba",
      "postcode": "4211",
      "state": "QLD",
      "latitude": -27.9905506,
      "longitude": 153.2436231,
      "distanceKm": 16.42,
      "direction": "W",
      "population": null
    },
    {
      "id": 8101,
      "name": "Lower Beechmont",
      "postcode": "4211",
      "state": "QLD",
      "latitude": -28.0454694,
      "longitude": 153.247934,
      "distanceKm": 16.62,
      "direction": "W",
      "population": null
    },
    {
      "id": 9067,
      "name": "Santa Barbara",
      "postcode": "4212",
      "state": "QLD",
      "latitude": -27.8569521,
      "longitude": 153.3531097,
      "distanceKm": 17.13,
      "direction": "N",
      "population": null
    },
    {
      "id": 10934,
      "name": "Sanctuary Cove",
      "postcode": "4212",
      "state": "QLD",
      "latitude": -27.853262,
      "longitude": 153.3621761,
      "distanceKm": 17.25,
      "direction": "N",
      "population": null
    },
    {
      "id": 7776,
      "name": "Tugun",
      "postcode": "4224",
      "state": "QLD",
      "latitude": -28.1412253,
      "longitude": 153.4929279,
      "distanceKm": 17.35,
      "direction": "SE",
      "population": null
    },
    {
      "id": 9075,
      "name": "Neranwood",
      "postcode": "4213",
      "state": "QLD",
      "latitude": -28.1228803,
      "longitude": 153.293474,
      "distanceKm": 17.54,
      "direction": "SW",
      "population": null
    },
    {
      "id": 9034,
      "name": "Currumbin Waters",
      "postcode": "4223",
      "state": "QLD",
      "latitude": -28.1553122,
      "longitude": 153.4612699,
      "distanceKm": 17.62,
      "direction": "S",
      "population": 9797
    },
    {
      "id": 10486,
      "name": "South Stradbroke",
      "postcode": "4216",
      "state": "QLD",
      "latitude": -27.8411121,
      "longitude": 153.4186096,
      "distanceKm": 17.96,
      "direction": "N",
      "population": null
    },
    {
      "id": 9095,
      "name": "Tugun Heights",
      "postcode": "4224",
      "state": "QLD",
      "latitude": -28.1515955,
      "longitude": 153.4844777,
      "distanceKm": 18.02,
      "direction": "SE",
      "population": null
    },
    {
      "id": 9094,
      "name": "Ingleside",
      "postcode": "4228",
      "state": "QLD",
      "latitude": -28.1671718,
      "longitude": 153.380294,
      "distanceKm": 18.43,
      "direction": "S",
      "population": null
    },
    {
      "id": 9035,
      "name": "Coomera",
      "postcode": "4209",
      "state": "QLD",
      "latitude": -27.8564881,
      "longitude": 153.3203988,
      "distanceKm": 18.48,
      "direction": "NW",
      "population": 20225
    },
    {
      "id": 10878,
      "name": "Paradise Valley",
      "postcode": "4213",
      "state": "QLD",
      "latitude": -28.1552247,
      "longitude": 153.3128721,
      "distanceKm": 19.38,
      "direction": "SW",
      "population": null
    },
    {
      "id": 8753,
      "name": "Currumbin Valley",
      "postcode": "4223",
      "state": "QLD",
      "latitude": -28.179401,
      "longitude": 153.422605,
      "distanceKm": 19.59,
      "direction": "S",
      "population": null
    },
    {
      "id": 9044,
      "name": "Bilinga",
      "postcode": "4225",
      "state": "QLD",
      "latitude": -28.1585408,
      "longitude": 153.505324,
      "distanceKm": 19.62,
      "direction": "SE",
      "population": null
    },
    {
      "id": 9093,
      "name": "Tallebudgera Valley",
      "postcode": "4228",
      "state": "QLD",
      "latitude": -28.176418,
      "longitude": 153.3680026,
      "distanceKm": 19.66,
      "direction": "S",
      "population": null
    },
    {
      "id": 8923,
      "name": "Upper Coomera",
      "postcode": "4209",
      "state": "QLD",
      "latitude": -27.8529809,
      "longitude": 153.2982761,
      "distanceKm": 19.93,
      "direction": "NW",
      "population": null
    },
    {
      "id": 7779,
      "name": "Couran Cove",
      "postcode": "4670",
      "state": "QLD",
      "latitude": -27.8212172,
      "longitude": 153.4144809,
      "distanceKm": 20.15,
      "direction": "N",
      "population": null
    },
    {
      "id": 9061,
      "name": "North Kirra",
      "postcode": "4225",
      "state": "QLD",
      "latitude": -28.1661538,
      "longitude": 153.5235997,
      "distanceKm": 21.25,
      "direction": "SE",
      "population": null
    },
    {
      "id": 7783,
      "name": "Mount Tamborine",
      "postcode": "4272",
      "state": "QLD",
      "latitude": -27.9684035,
      "longitude": 153.1967792,
      "distanceKm": 21.32,
      "direction": "W",
      "population": null
    },
    {
      "id": 9057,
      "name": "Kirra",
      "postcode": "4225",
      "state": "QLD",
      "latitude": -28.1676805,
      "longitude": 153.5295271,
      "distanceKm": 21.7,
      "direction": "SE",
      "population": null
    },
    {
      "id": 7785,
      "name": "Eagle Heights",
      "postcode": "4271",
      "state": "QLD",
      "latitude": -27.9218796,
      "longitude": 153.2034386,
      "distanceKm": 22.22,
      "direction": "W",
      "population": null
    },
    {
      "id": 7483,
      "name": "Coolangatta",
      "postcode": "4225",
      "state": "QLD",
      "latitude": -28.1682934,
      "longitude": 153.538753,
      "distanceKm": 22.26,
      "direction": "SE",
      "population": 6491
    },
    {
      "id": 9059,
      "name": "Greenmount",
      "postcode": "4225",
      "state": "QLD",
      "latitude": -28.1655064,
      "longitude": 153.5443188,
      "distanceKm": 22.33,
      "direction": "SE",
      "population": null
    },
    {
      "id": 10376,
      "name": "Tamborine Mountain",
      "postcode": "4272",
      "state": "QLD",
      "latitude": -27.9477768,
      "longitude": 153.191391,
      "distanceKm": 22.36,
      "direction": "W",
      "population": null
    },
    {
      "id": 9101,
      "name": "Witheren",
      "postcode": "4275",
      "state": "QLD",
      "latitude": -28.0506572,
      "longitude": 153.1877059,
      "distanceKm": 22.49,
      "direction": "W",
      "population": null
    },
    {
      "id": 9060,
      "name": "Point Danger",
      "postcode": "4225",
      "state": "QLD",
      "latitude": -28.164493,
      "longitude": 153.551114,
      "distanceKm": 22.64,
      "direction": "SE",
      "population": null
    },
    {
      "id": 9036,
      "name": "Willow Vale",
      "postcode": "4209",
      "state": "QLD",
      "latitude": -27.8417192,
      "longitude": 153.2686268,
      "distanceKm": 22.65,
      "direction": "NW",
      "population": null
    },
    {
      "id": 10968,
      "name": "Halcyon Greens",
      "postcode": "4209",
      "state": "QLD",
      "latitude": -27.815617,
      "longitude": 153.3141268,
      "distanceKm": 22.81,
      "direction": "NW",
      "population": null
    },
    {
      "id": 9173,
      "name": "Witherin",
      "postcode": "4275",
      "state": "QLD",
      "latitude": -28.0387356,
      "longitude": 153.1800729,
      "distanceKm": 22.96,
      "direction": "W",
      "population": null
    },
    {
      "id": 7784,
      "name": "North Tamborine",
      "postcode": "4272",
      "state": "QLD",
      "latitude": -27.9246019,
      "longitude": 153.1872788,
      "distanceKm": 23.57,
      "direction": "W",
      "population": null
    },
    {
      "id": 8133,
      "name": "Pimpama",
      "postcode": "4209",
      "state": "QLD",
      "latitude": -27.8161679,
      "longitude": 153.2924022,
      "distanceKm": 23.72,
      "direction": "NW",
      "population": null
    },
    {
      "id": 9076,
      "name": "Numinbah Valley",
      "postcode": "4211",
      "state": "QLD",
      "latitude": -28.139188,
      "longitude": 153.2235133,
      "distanceKm": 23.74,
      "direction": "SW",
      "population": null
    },
    {
      "id": 8120,
      "name": "Calypso Bay",
      "postcode": "4208",
      "state": "QLD",
      "latitude": -27.7899693,
      "longitude": 153.3758141,
      "distanceKm": 23.85,
      "direction": "N",
      "population": null
    },
    {
      "id": 9172,
      "name": "Benobble",
      "postcode": "4275",
      "state": "QLD",
      "latitude": -27.9818657,
      "longitude": 153.166125,
      "distanceKm": 24.1,
      "direction": "W",
      "population": null
    },
    {
      "id": 8043,
      "name": "Canungra",
      "postcode": "4275",
      "state": "QLD",
      "latitude": -28.0171019,
      "longitude": 153.165254,
      "distanceKm": 24.12,
      "direction": "W",
      "population": null
    },
    {
      "id": 10640,
      "name": "Southern Moreton Bay Islands",
      "postcode": "4208",
      "state": "QLD",
      "latitude": -27.7805557,
      "longitude": 153.4049988,
      "distanceKm": 24.66,
      "direction": "N",
      "population": 8481
    },
    {
      "id": 8121,
      "name": "Jacobs Well",
      "postcode": "4208",
      "state": "QLD",
      "latitude": -27.781009,
      "longitude": 153.3638622,
      "distanceKm": 25.02,
      "direction": "N",
      "population": null
    },
    {
      "id": 9171,
      "name": "Wonglepong",
      "postcode": "4275",
      "state": "QLD",
      "latitude": -27.9616036,
      "longitude": 153.1596581,
      "distanceKm": 25.05,
      "direction": "W",
      "population": null
    },
    {
      "id": 10285,
      "name": "Flying Fox",
      "postcode": "4275",
      "state": "QLD",
      "latitude": -28.101944,
      "longitude": 153.170563,
      "distanceKm": 25.97,
      "direction": "W",
      "population": null
    },
    {
      "id": 10631,
      "name": "Kingsholme",
      "postcode": "4208",
      "state": "QLD",
      "latitude": -27.8182749,
      "longitude": 153.2467766,
      "distanceKm": 26.02,
      "direction": "NW",
      "population": null
    },
    {
      "id": 7714,
      "name": "Canowindra Estate",
      "postcode": "4209",
      "state": "QLD",
      "latitude": -27.8001716,
      "longitude": 153.2754134,
      "distanceKm": 26.09,
      "direction": "NW",
      "population": null
    },
    {
      "id": 9948,
      "name": "Ferny Glen",
      "postcode": "4275",
      "state": "QLD",
      "latitude": -28.075279,
      "longitude": 153.156662,
      "distanceKm": 26.17,
      "direction": "W",
      "population": null
    },
    {
      "id": 10546,
      "name": "Norwell",
      "postcode": "4208",
      "state": "QLD",
      "latitude": -27.7769451,
      "longitude": 153.3125,
      "distanceKm": 26.83,
      "direction": "NW",
      "population": null
    },
    {
      "id": 10206,
      "name": "Boyland",
      "postcode": "4275",
      "state": "QLD",
      "latitude": -27.9391651,
      "longitude": 153.1300049,
      "distanceKm": 28.44,
      "direction": "W",
      "population": null
    },
    {
      "id": 9041,
      "name": "Ormeau Hills",
      "postcode": "4208",
      "state": "QLD",
      "latitude": -27.8009957,
      "longitude": 153.225405,
      "distanceKm": 28.83,
      "direction": "NW",
      "population": null
    },
    {
      "id": 9074,
      "name": "Natural Bridge",
      "postcode": "4211",
      "state": "QLD",
      "latitude": -28.2128425,
      "longitude": 153.2339211,
      "distanceKm": 28.99,
      "direction": "SW",
      "population": null
    },
    {
      "id": 9143,
      "name": "Kurraragin Valley",
      "postcode": "4211",
      "state": "QLD",
      "latitude": -28.18698,
      "longitude": 153.200073,
      "distanceKm": 29.01,
      "direction": "SW",
      "population": null
    },
    {
      "id": 9103,
      "name": "Illinbah",
      "postcode": "4275",
      "state": "QLD",
      "latitude": -28.1232641,
      "longitude": 153.1429561,
      "distanceKm": 29.44,
      "direction": "SW",
      "population": null
    },
    {
      "id": 10138,
      "name": "Biddaddaba",
      "postcode": "4275",
      "state": "QLD",
      "latitude": -27.995277,
      "longitude": 153.108612,
      "distanceKm": 29.66,
      "direction": "W",
      "population": null
    },
    {
      "id": 7713,
      "name": "Ormeau",
      "postcode": "4208",
      "state": "QLD",
      "latitude": -27.7740328,
      "longitude": 153.2486457,
      "distanceKm": 29.94,
      "direction": "NW",
      "population": null
    },
    {
      "id": 10589,
      "name": "Steiglitz",
      "postcode": "4207",
      "state": "QLD",
      "latitude": -27.7377777,
      "longitude": 153.3444366,
      "distanceKm": 30.09,
      "direction": "N",
      "population": null
    },
    {
      "id": 8089,
      "name": "Binna Burra",
      "postcode": "4211",
      "state": "QLD",
      "latitude": -28.1961705,
      "longitude": 153.1871949,
      "distanceKm": 30.62,
      "direction": "SW",
      "population": null
    },
    {
      "id": 9144,
      "name": "Kong Gong Rock",
      "postcode": "4211",
      "state": "QLD",
      "latitude": -28.2085104,
      "longitude": 153.2009901,
      "distanceKm": 30.67,
      "direction": "SW",
      "population": null
    },
    {
      "id": 9102,
      "name": "Sarabah",
      "postcode": "4275",
      "state": "QLD",
      "latitude": -28.0930981,
      "longitude": 153.1148257,
      "distanceKm": 30.69,
      "direction": "W",
      "population": null
    },
    {
      "id": 10933,
      "name": "Norfolk Village",
      "postcode": "4208",
      "state": "QLD",
      "latitude": -27.7684474,
      "longitude": 153.2420707,
      "distanceKm": 30.81,
      "direction": "NW",
      "population": null
    },
    {
      "id": 9098,
      "name": "Slipping Sands",
      "postcode": "4207",
      "state": "QLD",
      "latitude": -27.719546,
      "longitude": 153.4065809,
      "distanceKm": 31.41,
      "direction": "N",
      "population": null
    },
    {
      "id": 9040,
      "name": "Luscombe",
      "postcode": "4207",
      "state": "QLD",
      "latitude": -27.7851271,
      "longitude": 153.205604,
      "distanceKm": 31.43,
      "direction": "NW",
      "population": null
    },
    {
      "id": 10939,
      "name": "Nagarigoon old campsite",
      "postcode": "4211",
      "state": "QLD",
      "latitude": -28.2183958,
      "longitude": 153.2013469,
      "distanceKm": 31.47,
      "direction": "SW",
      "population": null
    },
    {
      "id": 9170,
      "name": "Tamborine",
      "postcode": "4270",
      "state": "QLD",
      "latitude": -27.9024629,
      "longitude": 153.1095731,
      "distanceKm": 31.59,
      "direction": "W",
      "population": null
    },
    {
      "id": 10733,
      "name": "Gilberton",
      "postcode": "4208",
      "state": "QLD",
      "latitude": -27.7425003,
      "longitude": 153.27388,
      "distanceKm": 31.83,
      "direction": "NW",
      "population": null
    },
    {
      "id": 10541,
      "name": "Woongoolba",
      "postcode": "4207",
      "state": "QLD",
      "latitude": -27.7277775,
      "longitude": 153.3147278,
      "distanceKm": 31.91,
      "direction": "N",
      "population": null
    },
    {
      "id": 9859,
      "name": "Kairabah",
      "postcode": "4207",
      "state": "QLD",
      "latitude": -27.8366667,
      "longitude": 153.1383333,
      "distanceKm": 32.48,
      "direction": "NW",
      "population": null
    },
    {
      "id": 9099,
      "name": "Koureyabba",
      "postcode": "4207",
      "state": "QLD",
      "latitude": -27.7072791,
      "longitude": 153.396237,
      "distanceKm": 32.8,
      "direction": "N",
      "population": null
    },
    {
      "id": 10137,
      "name": "Nindooinbah",
      "postcode": "4285",
      "state": "QLD",
      "latitude": -28.050554,
      "longitude": 153.072769,
      "distanceKm": 33.58,
      "direction": "W",
      "population": null
    },
    {
      "id": 9042,
      "name": "Wolffdene",
      "postcode": "4207",
      "state": "QLD",
      "latitude": -27.7826428,
      "longitude": 153.1726303,
      "distanceKm": 33.8,
      "direction": "NW",
      "population": null
    },
    {
      "id": 10352,
      "name": "Stapylton",
      "postcode": "4207",
      "state": "QLD",
      "latitude": -27.730278,
      "longitude": 153.24472,
      "distanceKm": 34.33,
      "direction": "NW",
      "population": null
    },
    {
      "id": 9165,
      "name": "Bannockburn",
      "postcode": "4207",
      "state": "QLD",
      "latitude": -27.7614106,
      "longitude": 153.190012,
      "distanceKm": 34.44,
      "direction": "NW",
      "population": null
    },
    {
      "id": 9169,
      "name": "Birnam",
      "postcode": "4285",
      "state": "QLD",
      "latitude": -27.9715627,
      "longitude": 153.0585255,
      "distanceKm": 34.75,
      "direction": "W",
      "population": null
    },
    {
      "id": 8128,
      "name": "Yatala",
      "postcode": "4207",
      "state": "QLD",
      "latitude": -27.7352654,
      "longitude": 153.2252177,
      "distanceKm": 34.81,
      "direction": "NW",
      "population": null
    },
    {
      "id": 9104,
      "name": "Cainbable",
      "postcode": "4285",
      "state": "QLD",
      "latitude": -28.1300344,
      "longitude": 153.0831932,
      "distanceKm": 35.07,
      "direction": "W",
      "population": null
    },
    {
      "id": 9995,
      "name": "Mundoolun",
      "postcode": "4285",
      "state": "QLD",
      "latitude": -27.894167,
      "longitude": 153.071106,
      "distanceKm": 35.46,
      "direction": "W",
      "population": null
    },
    {
      "id": 9168,
      "name": "Tabragalba",
      "postcode": "4285",
      "state": "QLD",
      "latitude": -27.9921354,
      "longitude": 153.0494001,
      "distanceKm": 35.49,
      "direction": "W",
      "population": null
    },
    {
      "id": 10311,
      "name": "Belivah",
      "postcode": "4207",
      "state": "QLD",
      "latitude": -27.7586117,
      "longitude": 153.1750031,
      "distanceKm": 35.62,
      "direction": "NW",
      "population": null
    },
    {
      "id": 8110,
      "name": "Windaroo",
      "postcode": "4207",
      "state": "QLD",
      "latitude": -27.7444916,
      "longitude": 153.1921635,
      "distanceKm": 35.79,
      "direction": "NW",
      "population": null
    },
    {
      "id": 10731,
      "name": "O'Reilly",
      "postcode": "4275",
      "state": "QLD",
      "latitude": -28.210001,
      "longitude": 153.127228,
      "distanceKm": 36.03,
      "direction": "SW",
      "population": null
    },
    {
      "id": 9062,
      "name": "Alberton",
      "postcode": "4207",
      "state": "QLD",
      "latitude": -27.7002085,
      "longitude": 153.2754081,
      "distanceKm": 36.08,
      "direction": "NW",
      "population": null
    },
    {
      "id": 8116,
      "name": "Mount Warren Park",
      "postcode": "4207",
      "state": "QLD",
      "latitude": -27.7279847,
      "longitude": 153.2090319,
      "distanceKm": 36.34,
      "direction": "NW",
      "population": 5736
    },
    {
      "id": 8663,
      "name": "Yarrabilba",
      "postcode": "4207",
      "state": "QLD",
      "latitude": -27.8030098,
      "longitude": 153.1081584,
      "distanceKm": 37.07,
      "direction": "NW",
      "population": 10706
    },
    {
      "id": 9137,
      "name": "Bahrs Scrub",
      "postcode": "4207",
      "state": "QLD",
      "latitude": -27.7375909,
      "longitude": 153.1723698,
      "distanceKm": 37.59,
      "direction": "NW",
      "population": null
    },
    {
      "id": 7523,
      "name": "Beenleigh",
      "postcode": "4207",
      "state": "QLD",
      "latitude": -27.7159492,
      "longitude": 153.2022293,
      "distanceKm": 37.82,
      "direction": "NW",
      "population": 8425
    },
    {
      "id": 7695,
      "name": "Eagleby",
      "postcode": "4207",
      "state": "QLD",
      "latitude": -27.700935,
      "longitude": 153.2126343,
      "distanceKm": 38.71,
      "direction": "NW",
      "population": 13594
    },
    {
      "id": 8269,
      "name": "Kerry",
      "postcode": "4285",
      "state": "QLD",
      "latitude": -28.1086098,
      "longitude": 153.0302538,
      "distanceKm": 39.12,
      "direction": "W",
      "population": null
    },
    {
      "id": 9100,
      "name": "The Lost World",
      "postcode": "4275",
      "state": "QLD",
      "latitude": -28.2513947,
      "longitude": 153.1203173,
      "distanceKm": 39.59,
      "direction": "SW",
      "population": null
    },
    {
      "id": 9134,
      "name": "Buccan",
      "postcode": "4207",
      "state": "QLD",
      "latitude": -27.7413113,
      "longitude": 153.135806,
      "distanceKm": 39.62,
      "direction": "NW",
      "population": null
    },
    {
      "id": 7698,
      "name": "Carbrook",
      "postcode": "4130",
      "state": "QLD",
      "latitude": -27.6759155,
      "longitude": 153.236016,
      "distanceKm": 40.09,
      "direction": "NW",
      "population": null
    },
    {
      "id": 7694,
      "name": "Holmview",
      "postcode": "4207",
      "state": "QLD",
      "latitude": -27.7046254,
      "longitude": 153.1786453,
      "distanceKm": 40.16,
      "direction": "NW",
      "population": null
    },
    {
      "id": 8129,
      "name": "Beaudesert",
      "postcode": "4285",
      "state": "QLD",
      "latitude": -27.9885617,
      "longitude": 152.9961186,
      "distanceKm": 40.74,
      "direction": "W",
      "population": 14674
    },
    {
      "id": 8262,
      "name": "Edens Landing",
      "postcode": "4207",
      "state": "QLD",
      "latitude": -27.7043578,
      "longitude": 153.1683889,
      "distanceKm": 40.76,
      "direction": "NW",
      "population": null
    },
    {
      "id": 9839,
      "name": "Veresdale Scrub",
      "postcode": "4285",
      "state": "QLD",
      "latitude": -27.9049988,
      "longitude": 153.0069427,
      "distanceKm": 41.12,
      "direction": "W",
      "population": null
    },
    {
      "id": 9743,
      "name": "Cedar Vale",
      "postcode": "4285",
      "state": "QLD",
      "latitude": -27.8797226,
      "longitude": 153.0149994,
      "distanceKm": 41.2,
      "direction": "W",
      "population": null
    },
    {
      "id": 7712,
      "name": "Logandale",
      "postcode": "4129",
      "state": "QLD",
      "latitude": -27.6749167,
      "longitude": 153.2109828,
      "distanceKm": 41.31,
      "direction": "NW",
      "population": null
    },
    {
      "id": 10039,
      "name": "Loganholme",
      "postcode": "4129",
      "state": "QLD",
      "latitude": -27.683054,
      "longitude": 153.1894379,
      "distanceKm": 41.58,
      "direction": "NW",
      "population": null
    },
    {
      "id": 7683,
      "name": "Waterford",
      "postcode": "4133",
      "state": "QLD",
      "latitude": -27.7035157,
      "longitude": 153.1528045,
      "distanceKm": 41.75,
      "direction": "NW",
      "population": null
    },
    {
      "id": 10226,
      "name": "Lamb Island",
      "postcode": "4184",
      "state": "QLD",
      "latitude": -27.6263886,
      "longitude": 153.3786163,
      "distanceKm": 41.85,
      "direction": "N",
      "population": null
    },
    {
      "id": 10191,
      "name": "Cryna",
      "postcode": "4285",
      "state": "QLD",
      "latitude": -28.040556,
      "longitude": 152.986389,
      "distanceKm": 41.87,
      "direction": "W",
      "population": null
    },
    {
      "id": 9780,
      "name": "Darlington",
      "postcode": "4285",
      "state": "QLD",
      "latitude": -28.233334,
      "longitude": 153.066391,
      "distanceKm": 42.32,
      "direction": "SW",
      "population": null
    },
    {
      "id": 7697,
      "name": "Cornubia",
      "postcode": "4130",
      "state": "QLD",
      "latitude": -27.6687965,
      "longitude": 153.2014437,
      "distanceKm": 42.35,
      "direction": "NW",
      "population": null
    },
    {
      "id": 10107,
      "name": "Southern Lamington",
      "postcode": "4211",
      "state": "QLD",
      "latitude": -28.294167,
      "longitude": 153.130005,
      "distanceKm": 42.4,
      "direction": "SW",
      "population": null
    },
    {
      "id": 9133,
      "name": "Jimboomba",
      "postcode": "4280",
      "state": "QLD",
      "latitude": -27.8318573,
      "longitude": 153.0227538,
      "distanceKm": 42.58,
      "direction": "NW",
      "population": null
    },
    {
      "id": 7682,
      "name": "Bethania",
      "postcode": "4205",
      "state": "QLD",
      "latitude": -27.6918376,
      "longitude": 153.1561448,
      "distanceKm": 42.59,
      "direction": "NW",
      "population": null
    },
    {
      "id": 9593,
      "name": "Gleneagle",
      "postcode": "4285",
      "state": "QLD",
      "latitude": -27.9373144,
      "longitude": 152.9810463,
      "distanceKm": 42.83,
      "direction": "W",
      "population": null
    },
    {
      "id": 7725,
      "name": "Stockleigh",
      "postcode": "4280",
      "state": "QLD",
      "latitude": -27.7732857,
      "longitude": 153.0573137,
      "distanceKm": 43.06,
      "direction": "NW",
      "population": null
    },
    {
      "id": 9135,
      "name": "Chambers Flat",
      "postcode": "4133",
      "state": "QLD",
      "latitude": -27.748186,
      "longitude": 153.0792864,
      "distanceKm": 43.1,
      "direction": "NW",
      "population": null
    },
    {
      "id": 9136,
      "name": "Logan Reserve",
      "postcode": "4133",
      "state": "QLD",
      "latitude": -27.7170594,
      "longitude": 153.1084184,
      "distanceKm": 43.43,
      "direction": "NW",
      "population": null
    },
    {
      "id": 7696,
      "name": "Tanah Merah",
      "postcode": "4128",
      "state": "QLD",
      "latitude": -27.6742992,
      "longitude": 153.1689858,
      "distanceKm": 43.48,
      "direction": "NW",
      "population": null
    },
    {
      "id": 9853,
      "name": "Veresdale",
      "postcode": "4285",
      "state": "QLD",
      "latitude": -27.9094448,
      "longitude": 152.9747162,
      "distanceKm": 44.07,
      "direction": "W",
      "population": null
    },
    {
      "id": 10723,
      "name": "Glenlogan",
      "postcode": "4280",
      "state": "QLD",
      "latitude": -27.8341667,
      "longitude": 153.0025,
      "distanceKm": 44.26,
      "direction": "NW",
      "population": null
    },
    {
      "id": 9141,
      "name": "River Glen Haven",
      "postcode": "4133",
      "state": "QLD",
      "latitude": -27.6921413,
      "longitude": 153.1252615,
      "distanceKm": 44.42,
      "direction": "NW",
      "population": null
    },
    {
      "id": 7684,
      "name": "Waterford West",
      "postcode": "4133",
      "state": "QLD",
      "latitude": -27.6910154,
      "longitude": 153.125553,
      "distanceKm": 44.5,
      "direction": "NW",
      "population": 7815
    },
    {
      "id": 7699,
      "name": "Redland Bay",
      "postcode": "4165",
      "state": "QLD",
      "latitude": -27.6126945,
      "longitude": 153.3036238,
      "distanceKm": 44.5,
      "direction": "N",
      "population": 17765
    },
    {
      "id": 9728,
      "name": "Woodhill",
      "postcode": "4285",
      "state": "QLD",
      "latitude": -27.8852768,
      "longitude": 152.9733276,
      "distanceKm": 44.91,
      "direction": "W",
      "population": null
    },
    {
      "id": 7700,
      "name": "Shailer Park",
      "postcode": "4128",
      "state": "QLD",
      "latitude": -27.6524382,
      "longitude": 153.1727858,
      "distanceKm": 45.34,
      "direction": "NW",
      "population": 12073
    },
    {
      "id": 7685,
      "name": "Loganlea",
      "postcode": "4131",
      "state": "QLD",
      "latitude": -27.6731622,
      "longitude": 153.137161,
      "distanceKm": 45.37,
      "direction": "NW",
      "population": 11776
    },
    {
      "id": 9366,
      "name": "Cedar Grove",
      "postcode": "4285",
      "state": "QLD",
      "latitude": -27.8600006,
      "longitude": 152.9744415,
      "distanceKm": 45.7,
      "direction": "W",
      "population": null
    },
    {
      "id": 7724,
      "name": "South Maclean",
      "postcode": "4280",
      "state": "QLD",
      "latitude": -27.7890909,
      "longitude": 153.0106015,
      "distanceKm": 45.92,
      "direction": "NW",
      "population": null
    },
    {
      "id": 9468,
      "name": "Tabooba",
      "postcode": "4285",
      "state": "QLD",
      "latitude": -28.135834,
      "longitude": 152.966934,
      "distanceKm": 45.97,
      "direction": "W",
      "population": null
    },
    {
      "id": 7693,
      "name": "Meadowbrook",
      "postcode": "4131",
      "state": "QLD",
      "latitude": -27.6624666,
      "longitude": 153.1415558,
      "distanceKm": 46.08,
      "direction": "NW",
      "population": null
    },
    {
      "id": 10216,
      "name": "Mount Cotton",
      "postcode": "4165",
      "state": "QLD",
      "latitude": -27.6188889,
      "longitude": 153.2210999,
      "distanceKm": 46.46,
      "direction": "NW",
      "population": null
    },
    {
      "id": 7723,
      "name": "North Maclean",
      "postcode": "4280",
      "state": "QLD",
      "latitude": -27.7768283,
      "longitude": 153.0099871,
      "distanceKm": 46.68,
      "direction": "NW",
      "population": null
    },
    {
      "id": 7687,
      "name": "Crestmead",
      "postcode": "4132",
      "state": "QLD",
      "latitude": -27.689416,
      "longitude": 153.0914486,
      "distanceKm": 46.82,
      "direction": "NW",
      "population": 12158
    },
    {
      "id": 10880,
      "name": "Potts Point",
      "postcode": "4019",
      "state": "QLD",
      "latitude": -27.5806527,
      "longitude": 153.361067,
      "distanceKm": 47.05,
      "direction": "N",
      "population": null
    },
    {
      "id": 7702,
      "name": "Daisy Hill",
      "postcode": "4127",
      "state": "QLD",
      "latitude": -27.643611,
      "longitude": 153.1538113,
      "distanceKm": 47.15,
      "direction": "NW",
      "population": 6897
    },
    {
      "id": 7686,
      "name": "Marsden",
      "postcode": "4132",
      "state": "QLD",
      "latitude": -27.6755473,
      "longitude": 153.103837,
      "distanceKm": 47.18,
      "direction": "NW",
      "population": 15988
    },
    {
      "id": 7722,
      "name": "Munruben",
      "postcode": "4125",
      "state": "QLD",
      "latitude": -27.7462512,
      "longitude": 153.0271901,
      "distanceKm": 47.23,
      "direction": "NW",
      "population": null
    },
    {
      "id": 10718,
      "name": "Riverbend",
      "postcode": "4280",
      "state": "QLD",
      "latitude": -27.8277778,
      "longitude": 152.9719444,
      "distanceKm": 47.29,
      "direction": "W",
      "population": null
    },
    {
      "id": 8688,
      "name": "Blakesley's Slip",
      "postcode": "4183",
      "state": "QLD",
      "latitude": -27.5745262,
      "longitude": 153.4108816,
      "distanceKm": 47.48,
      "direction": "N",
      "population": null
    },
    {
      "id": 7897,
      "name": "Victoria Point",
      "postcode": "4165",
      "state": "QLD",
      "latitude": -27.5843003,
      "longitude": 153.300364,
      "distanceKm": 47.64,
      "direction": "N",
      "population": 15140
    },
    {
      "id": 7721,
      "name": "Park Ridge South",
      "postcode": "4125",
      "state": "QLD",
      "latitude": -27.727592,
      "longitude": 153.0356009,
      "distanceKm": 47.86,
      "direction": "NW",
      "population": null
    },
    {
      "id": 7701,
      "name": "Slacks Creek",
      "postcode": "4127",
      "state": "QLD",
      "latitude": -27.6421532,
      "longitude": 153.141545,
      "distanceKm": 47.94,
      "direction": "NW",
      "population": 10408
    },
    {
      "id": 7691,
      "name": "Kingston",
      "postcode": "4114",
      "state": "QLD",
      "latitude": -27.6557421,
      "longitude": 153.1196351,
      "distanceKm": 47.95,
      "direction": "NW",
      "population": null
    },
    {
      "id": 10704,
      "name": "North Stradbroke Island",
      "postcode": "4183",
      "state": "QLD",
      "latitude": -27.5700016,
      "longitude": 153.4466705,
      "distanceKm": 48.12,
      "direction": "N",
      "population": 2156
    },
    {
      "id": 7898,
      "name": "Coochiemudlo Island",
      "postcode": "4184",
      "state": "QLD",
      "latitude": -27.5687952,
      "longitude": 153.3319756,
      "distanceKm": 48.73,
      "direction": "N",
      "population": null
    },
    {
      "id": 7720,
      "name": "Park Ridge",
      "postcode": "4125",
      "state": "QLD",
      "latitude": -27.6987848,
      "longitude": 153.0481122,
      "distanceKm": 49.06,
      "direction": "NW",
      "population": null
    },
    {
      "id": 9125,
      "name": "Heritage Park",
      "postcode": "4118",
      "state": "QLD",
      "latitude": -27.6830685,
      "longitude": 153.0598889,
      "distanceKm": 49.46,
      "direction": "NW",
      "population": null
    },
    {
      "id": 9382,
      "name": "Allenview",
      "postcode": "4285",
      "state": "QLD",
      "latitude": -27.911943,
      "longitude": 152.916672,
      "distanceKm": 49.58,
      "direction": "W",
      "population": null
    },
    {
      "id": 9423,
      "name": "Priestdale",
      "postcode": "4127",
      "state": "QLD",
      "latitude": -27.6077786,
      "longitude": 153.1663818,
      "distanceKm": 49.94,
      "direction": "NW",
      "population": null
    },
    {
      "id": 9142,
      "name": "Logan Central",
      "postcode": "4114",
      "state": "QLD",
      "latitude": -27.6412988,
      "longitude": 153.1072741,
      "distanceKm": 49.96,
      "direction": "NW",
      "population": 6356
    }
  ]
}