{
  "generated": "2025-09-07T22:01:27.153Z",
  "center": {
    "lat": -34.8517,
    "lng": 138.5829
  },
  "radiusKm": 50,
  "count": 511,
  "suburbs": [
    {
      "id": 11222,
      "name": "Kilburn",
      "postcode": "5084",
      "state": "SA",
      "latitude": -34.8596902,
      "longitude": 138.5855855,
      "distanceKm": 0.92,
      "direction": "S",
      "population": null
    },
    {
      "id": 11228,
      "name": "Blair Athol",
      "postcode": "5084",
      "state": "SA",
      "latitude": -34.8592373,
      "longitude": 138.5965433,
      "distanceKm": 1.5,
      "direction": "SE",
      "population": null
    },
    {
      "id": 11219,
      "name": "Regency Park",
      "postcode": "5010",
      "state": "SA",
      "latitude": -34.8625388,
      "longitude": 138.5723971,
      "distanceKm": 1.54,
      "direction": "SW",
      "population": null
    },
    {
      "id": 11220,
      "name": "Angle Park",
      "postcode": "5010",
      "state": "SA",
      "latitude": -34.8566301,
      "longitude": 138.5610335,
      "distanceKm": 2.07,
      "direction": "W",
      "population": null
    },
    {
      "id": 11226,
      "name": "Gepps Cross",
      "postcode": "5094",
      "state": "SA",
      "latitude": -34.8423859,
      "longitude": 138.6044271,
      "distanceKm": 2.22,
      "direction": "NE",
      "population": null
    },
    {
      "id": 12012,
      "name": "Enfield",
      "postcode": "5085",
      "state": "SA",
      "latitude": -34.8606457,
      "longitude": 138.6053811,
      "distanceKm": 2.28,
      "direction": "E",
      "population": null
    },
    {
      "id": 11229,
      "name": "Wingfield",
      "postcode": "5013",
      "state": "SA",
      "latitude": -34.8410235,
      "longitude": 138.5610418,
      "distanceKm": 2.32,
      "direction": "NW",
      "population": null
    },
    {
      "id": 11227,
      "name": "Ferryden Park",
      "postcode": "5010",
      "state": "SA",
      "latitude": -34.8687799,
      "longitude": 138.561433,
      "distanceKm": 2.73,
      "direction": "SW",
      "population": null
    },
    {
      "id": 11221,
      "name": "Mansfield Park",
      "postcode": "5012",
      "state": "SA",
      "latitude": -34.8565683,
      "longitude": 138.5518395,
      "distanceKm": 2.89,
      "direction": "W",
      "population": null
    },
    {
      "id": 11911,
      "name": "Clearview",
      "postcode": "5085",
      "state": "SA",
      "latitude": -34.8573872,
      "longitude": 138.6137563,
      "distanceKm": 2.89,
      "direction": "E",
      "population": null
    },
    {
      "id": 11821,
      "name": "Dudley Park",
      "postcode": "5008",
      "state": "SA",
      "latitude": -34.880068,
      "longitude": 138.5791569,
      "distanceKm": 3.17,
      "direction": "S",
      "population": null
    },
    {
      "id": 12002,
      "name": "Cavan",
      "postcode": "5094",
      "state": "SA",
      "latitude": -34.825656,
      "longitude": 138.5995084,
      "distanceKm": 3.26,
      "direction": "NE",
      "population": null
    },
    {
      "id": 11251,
      "name": "Woodville Gardens",
      "postcode": "5012",
      "state": "SA",
      "latitude": -34.8674539,
      "longitude": 138.552209,
      "distanceKm": 3.31,
      "direction": "SW",
      "population": null
    },
    {
      "id": 11180,
      "name": "Croydon Park",
      "postcode": "5008",
      "state": "SA",
      "latitude": -34.8802501,
      "longitude": 138.5674908,
      "distanceKm": 3.47,
      "direction": "SW",
      "population": null
    },
    {
      "id": 11923,
      "name": "Sefton Park",
      "postcode": "5083",
      "state": "SA",
      "latitude": -34.8762055,
      "longitude": 138.6065036,
      "distanceKm": 3.47,
      "direction": "SE",
      "population": null
    },
    {
      "id": 11214,
      "name": "Prospect",
      "postcode": "5082",
      "state": "SA",
      "latitude": -34.8827359,
      "longitude": 138.5928622,
      "distanceKm": 3.56,
      "direction": "S",
      "population": 15785
    },
    {
      "id": 11223,
      "name": "Athol Park",
      "postcode": "5012",
      "state": "SA",
      "latitude": -34.8560674,
      "longitude": 138.5428326,
      "distanceKm": 3.7,
      "direction": "W",
      "population": null
    },
    {
      "id": 11896,
      "name": "Northfield",
      "postcode": "5085",
      "state": "SA",
      "latitude": -34.8483826,
      "longitude": 138.6261293,
      "distanceKm": 3.97,
      "direction": "E",
      "population": null
    },
    {
      "id": 11971,
      "name": "Broadview",
      "postcode": "5083",
      "state": "SA",
      "latitude": -34.8759436,
      "longitude": 138.6150008,
      "distanceKm": 3.98,
      "direction": "SE",
      "population": null
    },
    {
      "id": 11882,
      "name": "Devon Park",
      "postcode": "5008",
      "state": "SA",
      "latitude": -34.8876339,
      "longitude": 138.5797647,
      "distanceKm": 4,
      "direction": "S",
      "population": null
    },
    {
      "id": 11181,
      "name": "Kilkenny",
      "postcode": "5009",
      "state": "SA",
      "latitude": -34.8791637,
      "longitude": 138.5528886,
      "distanceKm": 4.1,
      "direction": "SW",
      "population": null
    },
    {
      "id": 11270,
      "name": "Woodville North",
      "postcode": "5012",
      "state": "SA",
      "latitude": -34.8660817,
      "longitude": 138.541539,
      "distanceKm": 4.1,
      "direction": "W",
      "population": null
    },
    {
      "id": 11975,
      "name": "Nailsworth",
      "postcode": "5083",
      "state": "SA",
      "latitude": -34.884366,
      "longitude": 138.6061811,
      "distanceKm": 4.2,
      "direction": "SE",
      "population": null
    },
    {
      "id": 11987,
      "name": "Lightsview",
      "postcode": "5085",
      "state": "SA",
      "latitude": -34.8619547,
      "longitude": 138.6273162,
      "distanceKm": 4.22,
      "direction": "E",
      "population": null
    },
    {
      "id": 11084,
      "name": "Dry Creek",
      "postcode": "5094",
      "state": "SA",
      "latitude": -34.8148068,
      "longitude": 138.567052,
      "distanceKm": 4.34,
      "direction": "NW",
      "population": null
    },
    {
      "id": 11163,
      "name": "Renown Park",
      "postcode": "5008",
      "state": "SA",
      "latitude": -34.890541,
      "longitude": 138.5772784,
      "distanceKm": 4.34,
      "direction": "S",
      "population": null
    },
    {
      "id": 11544,
      "name": "Ottoway",
      "postcode": "5013",
      "state": "SA",
      "latitude": -34.8472738,
      "longitude": 138.5357349,
      "distanceKm": 4.34,
      "direction": "W",
      "population": null
    },
    {
      "id": 12022,
      "name": "Northgate",
      "postcode": "5085",
      "state": "SA",
      "latitude": -34.8525794,
      "longitude": 138.6312148,
      "distanceKm": 4.42,
      "direction": "E",
      "population": null
    },
    {
      "id": 11955,
      "name": "Greenacres",
      "postcode": "5086",
      "state": "SA",
      "latitude": -34.8686048,
      "longitude": 138.6281249,
      "distanceKm": 4.54,
      "direction": "E",
      "population": null
    },
    {
      "id": 11953,
      "name": "Manningham",
      "postcode": "5086",
      "state": "SA",
      "latitude": -34.8771946,
      "longitude": 138.6219464,
      "distanceKm": 4.55,
      "direction": "SE",
      "population": null
    },
    {
      "id": 11460,
      "name": "Pooraka",
      "postcode": "5095",
      "state": "SA",
      "latitude": -34.8257023,
      "longitude": 138.6228595,
      "distanceKm": 4.66,
      "direction": "NE",
      "population": null
    },
    {
      "id": 11198,
      "name": "West Croydon",
      "postcode": "5008",
      "state": "SA",
      "latitude": -34.8890035,
      "longitude": 138.5590316,
      "distanceKm": 4.68,
      "direction": "SW",
      "population": null
    },
    {
      "id": 11201,
      "name": "Pennington",
      "postcode": "5013",
      "state": "SA",
      "latitude": -34.8575565,
      "longitude": 138.5316591,
      "distanceKm": 4.73,
      "direction": "W",
      "population": null
    },
    {
      "id": 11217,
      "name": "Collinswood",
      "postcode": "5081",
      "state": "SA",
      "latitude": -34.8872868,
      "longitude": 138.6122364,
      "distanceKm": 4.77,
      "direction": "SE",
      "population": null
    },
    {
      "id": 11211,
      "name": "Woodville Park",
      "postcode": "5011",
      "state": "SA",
      "latitude": -34.8824134,
      "longitude": 138.5463783,
      "distanceKm": 4.77,
      "direction": "SW",
      "population": null
    },
    {
      "id": 11891,
      "name": "St Clair",
      "postcode": "5011",
      "state": "SA",
      "latitude": -34.8708846,
      "longitude": 138.535307,
      "distanceKm": 4.84,
      "direction": "W",
      "population": null
    },
    {
      "id": 11191,
      "name": "Ridleyton",
      "postcode": "5008",
      "state": "SA",
      "latitude": -34.8941688,
      "longitude": 138.5704701,
      "distanceKm": 4.85,
      "direction": "S",
      "population": null
    },
    {
      "id": 12032,
      "name": "Hampstead Gardens",
      "postcode": "5086",
      "state": "SA",
      "latitude": -34.8744869,
      "longitude": 138.6287767,
      "distanceKm": 4.9,
      "direction": "SE",
      "population": null
    },
    {
      "id": 11213,
      "name": "Medindie Gardens",
      "postcode": "5081",
      "state": "SA",
      "latitude": -34.8921667,
      "longitude": 138.6060525,
      "distanceKm": 4.96,
      "direction": "SE",
      "population": null
    },
    {
      "id": 11635,
      "name": "Woodville",
      "postcode": "5011",
      "state": "SA",
      "latitude": -34.8795782,
      "longitude": 138.5389922,
      "distanceKm": 5.07,
      "direction": "SW",
      "population": null
    },
    {
      "id": 11145,
      "name": "Croydon",
      "postcode": "5008",
      "state": "SA",
      "latitude": -34.8951603,
      "longitude": 138.5655691,
      "distanceKm": 5.08,
      "direction": "S",
      "population": null
    },
    {
      "id": 11209,
      "name": "Fitzroy",
      "postcode": "5082",
      "state": "SA",
      "latitude": -34.8969216,
      "longitude": 138.5913138,
      "distanceKm": 5.08,
      "direction": "S",
      "population": null
    },
    {
      "id": 11485,
      "name": "Walkley Heights",
      "postcode": "5098",
      "state": "SA",
      "latitude": -34.8400924,
      "longitude": 138.6369976,
      "distanceKm": 5.11,
      "direction": "E",
      "population": null
    },
    {
      "id": 11269,
      "name": "Brompton",
      "postcode": "5007",
      "state": "SA",
      "latitude": -34.8983219,
      "longitude": 138.5756758,
      "distanceKm": 5.21,
      "direction": "S",
      "population": null
    },
    {
      "id": 11204,
      "name": "Ovingham",
      "postcode": "5082",
      "state": "SA",
      "latitude": -34.89858,
      "longitude": 138.5852619,
      "distanceKm": 5.21,
      "direction": "S",
      "population": null
    },
    {
      "id": 11208,
      "name": "Thorngate",
      "postcode": "5082",
      "state": "SA",
      "latitude": -34.8973487,
      "longitude": 138.5968197,
      "distanceKm": 5.22,
      "direction": "S",
      "population": null
    },
    {
      "id": 11458,
      "name": "Mawson Lakes",
      "postcode": "5095",
      "state": "SA",
      "latitude": -34.8104796,
      "longitude": 138.6111791,
      "distanceKm": 5.25,
      "direction": "NE",
      "population": null
    },
    {
      "id": 11162,
      "name": "Medindie",
      "postcode": "5081",
      "state": "SA",
      "latitude": -34.8973232,
      "longitude": 138.604937,
      "distanceKm": 5.45,
      "direction": "SE",
      "population": null
    },
    {
      "id": 11218,
      "name": "Walkerville",
      "postcode": "5081",
      "state": "SA",
      "latitude": -34.891877,
      "longitude": 138.6178503,
      "distanceKm": 5.48,
      "direction": "SE",
      "population": 8023
    },
    {
      "id": 12013,
      "name": "Oakden",
      "postcode": "5086",
      "state": "SA",
      "latitude": -34.8527761,
      "longitude": 138.6432901,
      "distanceKm": 5.52,
      "direction": "E",
      "population": null
    },
    {
      "id": 11958,
      "name": "Vale Park",
      "postcode": "5081",
      "state": "SA",
      "latitude": -34.8860553,
      "longitude": 138.6271419,
      "distanceKm": 5.56,
      "direction": "SE",
      "population": null
    },
    {
      "id": 11883,
      "name": "Gillman",
      "postcode": "5013",
      "state": "SA",
      "latitude": -34.8332571,
      "longitude": 138.526264,
      "distanceKm": 5.57,
      "direction": "W",
      "population": null
    },
    {
      "id": 11919,
      "name": "Hillcrest",
      "postcode": "5086",
      "state": "SA",
      "latitude": -34.8625153,
      "longitude": 138.643046,
      "distanceKm": 5.63,
      "direction": "E",
      "population": null
    },
    {
      "id": 11140,
      "name": "Rosewater",
      "postcode": "5013",
      "state": "SA",
      "latitude": -34.852509,
      "longitude": 138.5213144,
      "distanceKm": 5.63,
      "direction": "W",
      "population": null
    },
    {
      "id": 11202,
      "name": "Cheltenham",
      "postcode": "5014",
      "state": "SA",
      "latitude": -34.8675787,
      "longitude": 138.5242666,
      "distanceKm": 5.64,
      "direction": "W",
      "population": null
    },
    {
      "id": 11212,
      "name": "Bowden",
      "postcode": "5007",
      "state": "SA",
      "latitude": -34.9028963,
      "longitude": 138.5799792,
      "distanceKm": 5.69,
      "direction": "S",
      "population": null
    },
    {
      "id": 11197,
      "name": "Beverley",
      "postcode": "5009",
      "state": "SA",
      "latitude": -34.8952647,
      "longitude": 138.5463394,
      "distanceKm": 5.88,
      "direction": "SW",
      "population": 8897
    },
    {
      "id": 11171,
      "name": "Woodville South",
      "postcode": "5011",
      "state": "SA",
      "latitude": -34.8884973,
      "longitude": 138.5361121,
      "distanceKm": 5.91,
      "direction": "SW",
      "population": null
    },
    {
      "id": 12005,
      "name": "Klemzig",
      "postcode": "5087",
      "state": "SA",
      "latitude": -34.878967,
      "longitude": 138.6386096,
      "distanceKm": 5.92,
      "direction": "SE",
      "population": null
    },
    {
      "id": 11581,
      "name": "Eastern Passage",
      "postcode": "5015",
      "state": "SA",
      "latitude": -34.8065175,
      "longitude": 138.5481553,
      "distanceKm": 5.94,
      "direction": "NW",
      "population": null
    },
    {
      "id": 11224,
      "name": "Gilberton",
      "postcode": "5081",
      "state": "SA",
      "latitude": -34.9004592,
      "longitude": 138.6126215,
      "distanceKm": 6.05,
      "direction": "SE",
      "population": null
    },
    {
      "id": 11081,
      "name": "Allenby Gardens",
      "postcode": "5009",
      "state": "SA",
      "latitude": -34.9016148,
      "longitude": 138.5543914,
      "distanceKm": 6.12,
      "direction": "SW",
      "population": null
    },
    {
      "id": 11133,
      "name": "Alberton",
      "postcode": "5014",
      "state": "SA",
      "latitude": -34.8590292,
      "longitude": 138.5161266,
      "distanceKm": 6.16,
      "direction": "W",
      "population": null
    },
    {
      "id": 11106,
      "name": "West Hindmarsh",
      "postcode": "5007",
      "state": "SA",
      "latitude": -34.9050505,
      "longitude": 138.563007,
      "distanceKm": 6.19,
      "direction": "S",
      "population": null
    },
    {
      "id": 11105,
      "name": "Welland",
      "postcode": "5007",
      "state": "SA",
      "latitude": -34.903885,
      "longitude": 138.5587553,
      "distanceKm": 6.2,
      "direction": "SW",
      "population": null
    },
    {
      "id": 11088,
      "name": "Hindmarsh",
      "postcode": "5007",
      "state": "SA",
      "latitude": -34.9066222,
      "longitude": 138.5699532,
      "distanceKm": 6.21,
      "direction": "S",
      "population": null
    },
    {
      "id": 11182,
      "name": "Albert Park",
      "postcode": "5014",
      "state": "SA",
      "latitude": -34.8762326,
      "longitude": 138.5214767,
      "distanceKm": 6.24,
      "direction": "W",
      "population": null
    },
    {
      "id": 11457,
      "name": "Ingle Farm",
      "postcode": "5098",
      "state": "SA",
      "latitude": -34.8275823,
      "longitude": 138.6454465,
      "distanceKm": 6.32,
      "direction": "E",
      "population": 15681
    },
    {
      "id": 11172,
      "name": "Woodville West",
      "postcode": "5011",
      "state": "SA",
      "latitude": -34.8850593,
      "longitude": 138.5265794,
      "distanceKm": 6.34,
      "direction": "SW",
      "population": null
    },
    {
      "id": 11291,
      "name": "North Arm",
      "postcode": "5015",
      "state": "SA",
      "latitude": -34.8130311,
      "longitude": 138.5310582,
      "distanceKm": 6.39,
      "direction": "NW",
      "population": null
    },
    {
      "id": 11593,
      "name": "North Adelaide",
      "postcode": "5006",
      "state": "SA",
      "latitude": -34.9085015,
      "longitude": 138.5953502,
      "distanceKm": 6.4,
      "direction": "S",
      "population": 6823
    },
    {
      "id": 11878,
      "name": "Garden Island",
      "postcode": "5015",
      "state": "SA",
      "latitude": -34.8075094,
      "longitude": 138.5360795,
      "distanceKm": 6.51,
      "direction": "NW",
      "population": null
    },
    {
      "id": 11967,
      "name": "Marden",
      "postcode": "5070",
      "state": "SA",
      "latitude": -34.8925643,
      "longitude": 138.6347392,
      "distanceKm": 6.56,
      "direction": "SE",
      "population": null
    },
    {
      "id": 11456,
      "name": "Greenfields",
      "postcode": "5107",
      "state": "SA",
      "latitude": -34.7949505,
      "longitude": 138.6035145,
      "distanceKm": 6.57,
      "direction": "N",
      "population": null
    },
    {
      "id": 11272,
      "name": "Royston Park",
      "postcode": "5070",
      "state": "SA",
      "latitude": -34.8973212,
      "longitude": 138.6299486,
      "distanceKm": 6.64,
      "direction": "SE",
      "population": null
    },
    {
      "id": 11271,
      "name": "Joslin",
      "postcode": "5070",
      "state": "SA",
      "latitude": -34.8996663,
      "longitude": 138.626552,
      "distanceKm": 6.65,
      "direction": "SE",
      "population": null
    },
    {
      "id": 11135,
      "name": "Hendon",
      "postcode": "5014",
      "state": "SA",
      "latitude": -34.8744445,
      "longitude": 138.5151719,
      "distanceKm": 6.69,
      "direction": "W",
      "population": null
    },
    {
      "id": 11978,
      "name": "Windsor Gardens",
      "postcode": "5087",
      "state": "SA",
      "latitude": -34.8655403,
      "longitude": 138.6543408,
      "distanceKm": 6.71,
      "direction": "E",
      "population": 22587
    },
    {
      "id": 12044,
      "name": "Queenstown",
      "postcode": "5014",
      "state": "SA",
      "latitude": -34.8609515,
      "longitude": 138.5103602,
      "distanceKm": 6.71,
      "direction": "W",
      "population": null
    },
    {
      "id": 12159,
      "name": "Green Fields",
      "postcode": "5107",
      "state": "SA",
      "latitude": -34.7942355,
      "longitude": 138.6060357,
      "distanceKm": 6.72,
      "direction": "N",
      "population": null
    },
    {
      "id": 11097,
      "name": "Port Adelaide",
      "postcode": "5015",
      "state": "SA",
      "latitude": -34.8342755,
      "longitude": 138.5123548,
      "distanceKm": 6.74,
      "direction": "W",
      "population": 11589
    },
    {
      "id": 11543,
      "name": "St Peters",
      "postcode": "5069",
      "state": "SA",
      "latitude": -34.9049797,
      "longitude": 138.6226003,
      "distanceKm": 6.94,
      "direction": "SE",
      "population": null
    },
    {
      "id": 11984,
      "name": "Gilles Plains",
      "postcode": "5086",
      "state": "SA",
      "latitude": -34.8500456,
      "longitude": 138.6590628,
      "distanceKm": 6.97,
      "direction": "E",
      "population": null
    },
    {
      "id": 11170,
      "name": "Findon",
      "postcode": "5023",
      "state": "SA",
      "latitude": -34.899463,
      "longitude": 138.5314438,
      "distanceKm": 7.09,
      "direction": "SW",
      "population": null
    },
    {
      "id": 11077,
      "name": "Thebarton",
      "postcode": "5031",
      "state": "SA",
      "latitude": -34.9151467,
      "longitude": 138.5724921,
      "distanceKm": 7.1,
      "direction": "S",
      "population": null
    },
    {
      "id": 11455,
      "name": "Globe Derby Park",
      "postcode": "5110",
      "state": "SA",
      "latitude": -34.787776,
      "longitude": 138.5893456,
      "distanceKm": 7.12,
      "direction": "N",
      "population": null
    },
    {
      "id": 11292,
      "name": "Angas Inlet",
      "postcode": "5015",
      "state": "SA",
      "latitude": -34.801706,
      "longitude": 138.5339163,
      "distanceKm": 7.13,
      "direction": "NW",
      "population": null
    },
    {
      "id": 12004,
      "name": "Felixstow",
      "postcode": "5070",
      "state": "SA",
      "latitude": -34.8890189,
      "longitude": 138.6469594,
      "distanceKm": 7.17,
      "direction": "SE",
      "population": null
    },
    {
      "id": 11134,
      "name": "Royal Park",
      "postcode": "5014",
      "state": "SA",
      "latitude": -34.8708208,
      "longitude": 138.5074037,
      "distanceKm": 7.22,
      "direction": "W",
      "population": null
    },
    {
      "id": 11442,
      "name": "Valley View",
      "postcode": "5093",
      "state": "SA",
      "latitude": -34.8399353,
      "longitude": 138.6607359,
      "distanceKm": 7.24,
      "direction": "E",
      "population": null
    },
    {
      "id": 11085,
      "name": "Flinders Park",
      "postcode": "5025",
      "state": "SA",
      "latitude": -34.9102468,
      "longitude": 138.5432009,
      "distanceKm": 7.44,
      "direction": "SW",
      "population": 16361
    },
    {
      "id": 11264,
      "name": "College Park",
      "postcode": "5069",
      "state": "SA",
      "latitude": -34.9115411,
      "longitude": 138.6197277,
      "distanceKm": 7.44,
      "direction": "SE",
      "population": null
    },
    {
      "id": 11583,
      "name": "Gawler Reach",
      "postcode": "5015",
      "state": "SA",
      "latitude": -34.8419976,
      "longitude": 138.5022253,
      "distanceKm": 7.46,
      "direction": "W",
      "population": null
    },
    {
      "id": 11937,
      "name": "Payneham",
      "postcode": "5070",
      "state": "SA",
      "latitude": -34.8989089,
      "longitude": 138.6422239,
      "distanceKm": 7.54,
      "direction": "SE",
      "population": null
    },
    {
      "id": 11993,
      "name": "Hackney",
      "postcode": "5069",
      "state": "SA",
      "latitude": -34.9138951,
      "longitude": 138.6163849,
      "distanceKm": 7.55,
      "direction": "SE",
      "population": null
    },
    {
      "id": 11875,
      "name": "Parafield",
      "postcode": "5106",
      "state": "SA",
      "latitude": -34.796125,
      "longitude": 138.631086,
      "distanceKm": 7.58,
      "direction": "NE",
      "population": 21
    },
    {
      "id": 12019,
      "name": "Evandale",
      "postcode": "5069",
      "state": "SA",
      "latitude": -34.9055202,
      "longitude": 138.6354131,
      "distanceKm": 7.66,
      "direction": "SE",
      "population": null
    },
    {
      "id": 11069,
      "name": "Birkenhead",
      "postcode": "5015",
      "state": "SA",
      "latitude": -34.836756,
      "longitude": 138.5002312,
      "distanceKm": 7.74,
      "direction": "W",
      "population": null
    },
    {
      "id": 11437,
      "name": "Para Vista",
      "postcode": "5093",
      "state": "SA",
      "latitude": -34.8283874,
      "longitude": 138.6627709,
      "distanceKm": 7.75,
      "direction": "E",
      "population": null
    },
    {
      "id": 11465,
      "name": "Para Hills West",
      "postcode": "5096",
      "state": "SA",
      "latitude": -34.8034564,
      "longitude": 138.6443173,
      "distanceKm": 7.76,
      "direction": "NE",
      "population": null
    },
    {
      "id": 11582,
      "name": "Old Port Reach",
      "postcode": "5015",
      "state": "SA",
      "latitude": -34.8484654,
      "longitude": 138.4976225,
      "distanceKm": 7.81,
      "direction": "W",
      "population": null
    },
    {
      "id": 11061,
      "name": "Torrensville",
      "postcode": "5031",
      "state": "SA",
      "latitude": -34.9197846,
      "longitude": 138.5597989,
      "distanceKm": 7.84,
      "direction": "S",
      "population": null
    },
    {
      "id": 11945,
      "name": "Campbelltown",
      "postcode": "5074",
      "state": "SA",
      "latitude": -34.8813676,
      "longitude": 138.6608519,
      "distanceKm": 7.85,
      "direction": "E",
      "population": null
    },
    {
      "id": 11102,
      "name": "Seaton",
      "postcode": "5023",
      "state": "SA",
      "latitude": -34.893357,
      "longitude": 138.5129598,
      "distanceKm": 7.89,
      "direction": "SW",
      "population": null
    },
    {
      "id": 11890,
      "name": "New Port",
      "postcode": "5015",
      "state": "SA",
      "latitude": -34.8447946,
      "longitude": 138.4968013,
      "distanceKm": 7.91,
      "direction": "W",
      "population": null
    },
    {
      "id": 11379,
      "name": "Peterhead",
      "postcode": "5016",
      "state": "SA",
      "latitude": -34.8312056,
      "longitude": 138.4999257,
      "distanceKm": 7.92,
      "direction": "W",
      "population": null
    },
    {
      "id": 11901,
      "name": "Stepney",
      "postcode": "5069",
      "state": "SA",
      "latitude": -34.9122895,
      "longitude": 138.6292554,
      "distanceKm": 7.95,
      "direction": "SE",
      "population": null
    },
    {
      "id": 11470,
      "name": "Para Hills",
      "postcode": "5096",
      "state": "SA",
      "latitude": -34.8117394,
      "longitude": 138.6556036,
      "distanceKm": 7.99,
      "direction": "NE",
      "population": 15094
    },
    {
      "id": 12026,
      "name": "Glynde",
      "postcode": "5070",
      "state": "SA",
      "latitude": -34.8960474,
      "longitude": 138.652531,
      "distanceKm": 8.05,
      "direction": "SE",
      "population": null
    },
    {
      "id": 11459,
      "name": "Parafield Gardens",
      "postcode": "5107",
      "state": "SA",
      "latitude": -34.7825552,
      "longitude": 138.6107321,
      "distanceKm": 8.08,
      "direction": "N",
      "population": 18467
    },
    {
      "id": 11070,
      "name": "Underdale",
      "postcode": "5032",
      "state": "SA",
      "latitude": -34.9195393,
      "longitude": 138.5491047,
      "distanceKm": 8.14,
      "direction": "SW",
      "population": null
    },
    {
      "id": 11906,
      "name": "Payneham South",
      "postcode": "5070",
      "state": "SA",
      "latitude": -34.9047888,
      "longitude": 138.6444569,
      "distanceKm": 8.15,
      "direction": "SE",
      "population": null
    },
    {
      "id": 12028,
      "name": "Holden Hill",
      "postcode": "5088",
      "state": "SA",
      "latitude": -34.8516117,
      "longitude": 138.6722955,
      "distanceKm": 8.18,
      "direction": "E",
      "population": null
    },
    {
      "id": 11068,
      "name": "West Lakes",
      "postcode": "5021",
      "state": "SA",
      "latitude": -34.8759925,
      "longitude": 138.4982893,
      "distanceKm": 8.19,
      "direction": "W",
      "population": 15205
    },
    {
      "id": 11964,
      "name": "Maylands",
      "postcode": "5069",
      "state": "SA",
      "latitude": -34.9112777,
      "longitude": 138.6367026,
      "distanceKm": 8.24,
      "direction": "SE",
      "population": null
    },
    {
      "id": 11064,
      "name": "Mile End",
      "postcode": "5031",
      "state": "SA",
      "latitude": -34.9263377,
      "longitude": 138.5711113,
      "distanceKm": 8.35,
      "direction": "S",
      "population": null
    },
    {
      "id": 12134,
      "name": "Adelaide",
      "postcode": "5000",
      "state": "SA",
      "latitude": -34.9256413,
      "longitude": 138.6007686,
      "distanceKm": 8.36,
      "direction": "S",
      "population": 18202
    },
    {
      "id": 11884,
      "name": "Largs North",
      "postcode": "5016",
      "state": "SA",
      "latitude": -34.8168309,
      "longitude": 138.5012541,
      "distanceKm": 8.41,
      "direction": "NW",
      "population": null
    },
    {
      "id": 11175,
      "name": "Kidman Park",
      "postcode": "5025",
      "state": "SA",
      "latitude": -34.9122329,
      "longitude": 138.5269306,
      "distanceKm": 8.44,
      "direction": "SW",
      "population": null
    },
    {
      "id": 11089,
      "name": "Kent Town",
      "postcode": "5067",
      "state": "SA",
      "latitude": -34.9215545,
      "longitude": 138.620129,
      "distanceKm": 8.46,
      "direction": "SE",
      "population": null
    },
    {
      "id": 11889,
      "name": "Glanville",
      "postcode": "5015",
      "state": "SA",
      "latitude": -34.8440609,
      "longitude": 138.4908979,
      "distanceKm": 8.46,
      "direction": "W",
      "population": null
    },
    {
      "id": 11203,
      "name": "Ethelton",
      "postcode": "5015",
      "state": "SA",
      "latitude": -34.8488333,
      "longitude": 138.4901309,
      "distanceKm": 8.49,
      "direction": "W",
      "population": null
    },
    {
      "id": 11886,
      "name": "Exeter",
      "postcode": "5019",
      "state": "SA",
      "latitude": -34.8384893,
      "longitude": 138.4907683,
      "distanceKm": 8.55,
      "direction": "W",
      "population": null
    },
    {
      "id": 11885,
      "name": "Largs Bay",
      "postcode": "5016",
      "state": "SA",
      "latitude": -34.8266187,
      "longitude": 138.4935504,
      "distanceKm": 8.63,
      "direction": "W",
      "population": null
    },
    {
      "id": 11449,
      "name": "Dernancourt",
      "postcode": "5075",
      "state": "SA",
      "latitude": -34.86198,
      "longitude": 138.6765806,
      "distanceKm": 8.64,
      "direction": "E",
      "population": null
    },
    {
      "id": 12016,
      "name": "Trinity Gardens",
      "postcode": "5068",
      "state": "SA",
      "latitude": -34.9112557,
      "longitude": 138.6445065,
      "distanceKm": 8.68,
      "direction": "SE",
      "population": null
    },
    {
      "id": 11922,
      "name": "Firle",
      "postcode": "5070",
      "state": "SA",
      "latitude": -34.9045623,
      "longitude": 138.6531687,
      "distanceKm": 8.7,
      "direction": "SE",
      "population": null
    },
    {
      "id": 11750,
      "name": "Chinatown",
      "postcode": "5000",
      "state": "SA",
      "latitude": -34.9298802,
      "longitude": 138.5959134,
      "distanceKm": 8.75,
      "direction": "S",
      "population": null
    },
    {
      "id": 12027,
      "name": "Paradise",
      "postcode": "5075",
      "state": "SA",
      "latitude": -34.8710706,
      "longitude": 138.6762598,
      "distanceKm": 8.8,
      "direction": "E",
      "population": null
    },
    {
      "id": 11879,
      "name": "Torrens Island",
      "postcode": "5015",
      "state": "SA",
      "latitude": -34.787563,
      "longitude": 138.5259139,
      "distanceKm": 8.82,
      "direction": "NW",
      "population": 4
    },
    {
      "id": 11989,
      "name": "Hectorville",
      "postcode": "5073",
      "state": "SA",
      "latitude": -34.8930576,
      "longitude": 138.6656798,
      "distanceKm": 8.85,
      "direction": "SE",
      "population": null
    },
    {
      "id": 11415,
      "name": "Bolivar",
      "postcode": "5110",
      "state": "SA",
      "latitude": -34.7715623,
      "longitude": 138.5722034,
      "distanceKm": 8.94,
      "direction": "N",
      "population": null
    },
    {
      "id": 11894,
      "name": "Norwood",
      "postcode": "5067",
      "state": "SA",
      "latitude": -34.9213467,
      "longitude": 138.6320869,
      "distanceKm": 8.94,
      "direction": "SE",
      "population": null
    },
    {
      "id": 11210,
      "name": "Semaphore Park",
      "postcode": "5019",
      "state": "SA",
      "latitude": -34.8558053,
      "longitude": 138.4850672,
      "distanceKm": 8.96,
      "direction": "W",
      "population": null
    },
    {
      "id": 11205,
      "name": "West Lakes Shore",
      "postcode": "5020",
      "state": "SA",
      "latitude": -34.865634,
      "longitude": 138.4861882,
      "distanceKm": 8.98,
      "direction": "W",
      "population": null
    },
    {
      "id": 11063,
      "name": "Hilton",
      "postcode": "5033",
      "state": "SA",
      "latitude": -34.9321393,
      "longitude": 138.5658367,
      "distanceKm": 9.06,
      "direction": "S",
      "population": null
    },
    {
      "id": 11881,
      "name": "Taperoo",
      "postcode": "5017",
      "state": "SA",
      "latitude": -34.8065404,
      "longitude": 138.5000199,
      "distanceKm": 9.09,
      "direction": "NW",
      "population": null
    },
    {
      "id": 11887,
      "name": "Semaphore",
      "postcode": "5019",
      "state": "SA",
      "latitude": -34.8389194,
      "longitude": 138.4839777,
      "distanceKm": 9.16,
      "direction": "W",
      "population": null
    },
    {
      "id": 11898,
      "name": "St Morris",
      "postcode": "5068",
      "state": "SA",
      "latitude": -34.9110511,
      "longitude": 138.6536206,
      "distanceKm": 9.23,
      "direction": "SE",
      "population": null
    },
    {
      "id": 11062,
      "name": "Cowandilla",
      "postcode": "5033",
      "state": "SA",
      "latitude": -34.9324599,
      "longitude": 138.5569406,
      "distanceKm": 9.27,
      "direction": "S",
      "population": null
    },
    {
      "id": 11263,
      "name": "Beulah Park",
      "postcode": "5067",
      "state": "SA",
      "latitude": -34.9176726,
      "longitude": 138.6452299,
      "distanceKm": 9.28,
      "direction": "SE",
      "population": null
    },
    {
      "id": 11888,
      "name": "Semaphore South",
      "postcode": "5019",
      "state": "SA",
      "latitude": -34.8472424,
      "longitude": 138.4806168,
      "distanceKm": 9.37,
      "direction": "W",
      "population": null
    },
    {
      "id": 11080,
      "name": "Brooklyn Park",
      "postcode": "5032",
      "state": "SA",
      "latitude": -34.9301049,
      "longitude": 138.5447587,
      "distanceKm": 9.37,
      "direction": "SW",
      "population": null
    },
    {
      "id": 11173,
      "name": "Grange",
      "postcode": "5022",
      "state": "SA",
      "latitude": -34.8991361,
      "longitude": 138.498079,
      "distanceKm": 9.37,
      "direction": "SW",
      "population": null
    },
    {
      "id": 11915,
      "name": "Keswick Terminal",
      "postcode": "5035",
      "state": "SA",
      "latitude": -34.9362351,
      "longitude": 138.5796735,
      "distanceKm": 9.38,
      "direction": "S",
      "population": null
    },
    {
      "id": 11914,
      "name": "Tranmere",
      "postcode": "5073",
      "state": "SA",
      "latitude": -34.9054949,
      "longitude": 138.6621098,
      "distanceKm": 9.38,
      "direction": "SE",
      "population": null
    },
    {
      "id": 11137,
      "name": "Lockleys",
      "postcode": "5032",
      "state": "SA",
      "latitude": -34.9250195,
      "longitude": 138.5309544,
      "distanceKm": 9.42,
      "direction": "SW",
      "population": 13452
    },
    {
      "id": 11350,
      "name": "Salisbury South",
      "postcode": "5106",
      "state": "SA",
      "latitude": -34.7827756,
      "longitude": 138.6429577,
      "distanceKm": 9.42,
      "direction": "NE",
      "population": null
    },
    {
      "id": 11136,
      "name": "Fulham Gardens",
      "postcode": "5024",
      "state": "SA",
      "latitude": -34.9148333,
      "longitude": 138.5132516,
      "distanceKm": 9.47,
      "direction": "SW",
      "population": null
    },
    {
      "id": 11076,
      "name": "Mile End South",
      "postcode": "5031",
      "state": "SA",
      "latitude": -34.9369318,
      "longitude": 138.5739376,
      "distanceKm": 9.49,
      "direction": "S",
      "population": null
    },
    {
      "id": 11435,
      "name": "Modbury North",
      "postcode": "5092",
      "state": "SA",
      "latitude": -34.8231427,
      "longitude": 138.6811612,
      "distanceKm": 9.53,
      "direction": "E",
      "population": null
    },
    {
      "id": 11436,
      "name": "Modbury",
      "postcode": "5092",
      "state": "SA",
      "latitude": -34.8338962,
      "longitude": 138.6851156,
      "distanceKm": 9.56,
      "direction": "E",
      "population": null
    },
    {
      "id": 12089,
      "name": "Rotary Park",
      "postcode": "5075",
      "state": "SA",
      "latitude": -34.8664008,
      "longitude": 138.6864482,
      "distanceKm": 9.61,
      "direction": "E",
      "population": null
    },
    {
      "id": 11461,
      "name": "Salisbury Downs",
      "postcode": "5108",
      "state": "SA",
      "latitude": -34.7717678,
      "longitude": 138.6243416,
      "distanceKm": 9.64,
      "direction": "NE",
      "population": null
    },
    {
      "id": 11994,
      "name": "Rose Park",
      "postcode": "5067",
      "state": "SA",
      "latitude": -34.9307114,
      "longitude": 138.6282898,
      "distanceKm": 9.7,
      "direction": "SE",
      "population": null
    },
    {
      "id": 11912,
      "name": "Newton",
      "postcode": "5074",
      "state": "SA",
      "latitude": -34.8820277,
      "longitude": 138.6824021,
      "distanceKm": 9.7,
      "direction": "E",
      "population": null
    },
    {
      "id": 11174,
      "name": "Tennyson",
      "postcode": "5022",
      "state": "SA",
      "latitude": -34.8861961,
      "longitude": 138.4853423,
      "distanceKm": 9.71,
      "direction": "W",
      "population": null
    },
    {
      "id": 11067,
      "name": "Richmond",
      "postcode": "5033",
      "state": "SA",
      "latitude": -34.9386322,
      "longitude": 138.5621291,
      "distanceKm": 9.83,
      "direction": "S",
      "population": null
    },
    {
      "id": 11273,
      "name": "Kensington",
      "postcode": "5068",
      "state": "SA",
      "latitude": -34.9237471,
      "longitude": 138.6456133,
      "distanceKm": 9.84,
      "direction": "SE",
      "population": null
    },
    {
      "id": 11257,
      "name": "Kensington Park",
      "postcode": "5068",
      "state": "SA",
      "latitude": -34.9202054,
      "longitude": 138.6542962,
      "distanceKm": 10.02,
      "direction": "SE",
      "population": null
    },
    {
      "id": 11880,
      "name": "Osborne",
      "postcode": "5017",
      "state": "SA",
      "latitude": -34.7859285,
      "longitude": 138.5072887,
      "distanceKm": 10.05,
      "direction": "NW",
      "population": null
    },
    {
      "id": 11318,
      "name": "Lipson Reach",
      "postcode": "5017",
      "state": "SA",
      "latitude": -34.7793206,
      "longitude": 138.5168609,
      "distanceKm": 10.05,
      "direction": "NW",
      "population": null
    },
    {
      "id": 11433,
      "name": "Gulfview Heights",
      "postcode": "5096",
      "state": "SA",
      "latitude": -34.7955526,
      "longitude": 138.6693829,
      "distanceKm": 10.07,
      "direction": "NE",
      "population": null
    },
    {
      "id": 11434,
      "name": "Modbury Heights",
      "postcode": "5092",
      "state": "SA",
      "latitude": -34.8120502,
      "longitude": 138.6823423,
      "distanceKm": 10.1,
      "direction": "E",
      "population": 19248
    },
    {
      "id": 11142,
      "name": "West Richmond",
      "postcode": "5033",
      "state": "SA",
      "latitude": -34.9393208,
      "longitude": 138.5504186,
      "distanceKm": 10.16,
      "direction": "S",
      "population": null
    },
    {
      "id": 11962,
      "name": "Marryatville",
      "postcode": "5068",
      "state": "SA",
      "latitude": -34.9284327,
      "longitude": 138.6459965,
      "distanceKm": 10.28,
      "direction": "SE",
      "population": null
    },
    {
      "id": 11075,
      "name": "Keswick",
      "postcode": "5035",
      "state": "SA",
      "latitude": -34.9443902,
      "longitude": 138.5777753,
      "distanceKm": 10.29,
      "direction": "S",
      "population": null
    },
    {
      "id": 11179,
      "name": "Dulwich",
      "postcode": "5065",
      "state": "SA",
      "latitude": -34.9368219,
      "longitude": 138.628747,
      "distanceKm": 10.33,
      "direction": "SE",
      "population": null
    },
    {
      "id": 11980,
      "name": "Toorak Gardens",
      "postcode": "5065",
      "state": "SA",
      "latitude": -34.9333315,
      "longitude": 138.6374925,
      "distanceKm": 10.34,
      "direction": "SE",
      "population": 16635
    },
    {
      "id": 11107,
      "name": "Wayville",
      "postcode": "5034",
      "state": "SA",
      "latitude": -34.9448147,
      "longitude": 138.5914429,
      "distanceKm": 10.36,
      "direction": "S",
      "population": null
    },
    {
      "id": 11451,
      "name": "Hope Valley",
      "postcode": "5090",
      "state": "SA",
      "latitude": -34.8453721,
      "longitude": 138.6960181,
      "distanceKm": 10.37,
      "direction": "E",
      "population": null
    },
    {
      "id": 11206,
      "name": "Henley Beach",
      "postcode": "5022",
      "state": "SA",
      "latitude": -34.9158802,
      "longitude": 138.4986953,
      "distanceKm": 10.49,
      "direction": "SW",
      "population": 15634
    },
    {
      "id": 11086,
      "name": "Fulham",
      "postcode": "5024",
      "state": "SA",
      "latitude": -34.9273551,
      "longitude": 138.5136809,
      "distanceKm": 10.51,
      "direction": "SW",
      "population": 2920
    },
    {
      "id": 12001,
      "name": "Kensington Gardens",
      "postcode": "5068",
      "state": "SA",
      "latitude": -34.9197256,
      "longitude": 138.6631867,
      "distanceKm": 10.53,
      "direction": "SE",
      "population": null
    },
    {
      "id": 11259,
      "name": "Magill",
      "postcode": "5072",
      "state": "SA",
      "latitude": -34.9090724,
      "longitude": 138.6749971,
      "distanceKm": 10.55,
      "direction": "SE",
      "population": null
    },
    {
      "id": 12020,
      "name": "Heathpool",
      "postcode": "5068",
      "state": "SA",
      "latitude": -34.9314228,
      "longitude": 138.6462942,
      "distanceKm": 10.57,
      "direction": "SE",
      "population": null
    },
    {
      "id": 11138,
      "name": "Marleston",
      "postcode": "5033",
      "state": "SA",
      "latitude": -34.9453435,
      "longitude": 138.5616289,
      "distanceKm": 10.57,
      "direction": "S",
      "population": null
    },
    {
      "id": 11464,
      "name": "Brahma Lodge",
      "postcode": "5109",
      "state": "SA",
      "latitude": -34.775875,
      "longitude": 138.6530791,
      "distanceKm": 10.58,
      "direction": "NE",
      "population": null
    },
    {
      "id": 11141,
      "name": "Eastwood",
      "postcode": "5063",
      "state": "SA",
      "latitude": -34.9422665,
      "longitude": 138.6217189,
      "distanceKm": 10.66,
      "direction": "SE",
      "population": null
    },
    {
      "id": 11293,
      "name": "Barker Inlet",
      "postcode": "5355",
      "state": "SA",
      "latitude": -34.7648728,
      "longitude": 138.5318135,
      "distanceKm": 10.71,
      "direction": "NW",
      "population": null
    },
    {
      "id": 11420,
      "name": "Paralowie",
      "postcode": "5108",
      "state": "SA",
      "latitude": -34.7570514,
      "longitude": 138.6081109,
      "distanceKm": 10.75,
      "direction": "N",
      "population": 17816
    },
    {
      "id": 11074,
      "name": "Ashford",
      "postcode": "5035",
      "state": "SA",
      "latitude": -34.9486638,
      "longitude": 138.5743627,
      "distanceKm": 10.79,
      "direction": "S",
      "population": null
    },
    {
      "id": 11256,
      "name": "Leabrook",
      "postcode": "5068",
      "state": "SA",
      "latitude": -34.9296992,
      "longitude": 138.6551196,
      "distanceKm": 10.88,
      "direction": "SE",
      "population": null
    },
    {
      "id": 11166,
      "name": "Unley",
      "postcode": "5061",
      "state": "SA",
      "latitude": -34.9482998,
      "longitude": 138.606478,
      "distanceKm": 10.93,
      "direction": "S",
      "population": null
    },
    {
      "id": 11095,
      "name": "Parkside",
      "postcode": "5063",
      "state": "SA",
      "latitude": -34.9462533,
      "longitude": 138.6166434,
      "distanceKm": 10.93,
      "direction": "S",
      "population": null
    },
    {
      "id": 11452,
      "name": "Rostrevor",
      "postcode": "5073",
      "state": "SA",
      "latitude": -34.8938435,
      "longitude": 138.6918266,
      "distanceKm": 11,
      "direction": "E",
      "population": null
    },
    {
      "id": 12008,
      "name": "Tusmore",
      "postcode": "5065",
      "state": "SA",
      "latitude": -34.9358569,
      "longitude": 138.6473738,
      "distanceKm": 11.04,
      "direction": "SE",
      "population": null
    },
    {
      "id": 11244,
      "name": "Forestville",
      "postcode": "5035",
      "state": "SA",
      "latitude": -34.9513809,
      "longitude": 138.5809809,
      "distanceKm": 11.06,
      "direction": "S",
      "population": null
    },
    {
      "id": 11108,
      "name": "Goodwood",
      "postcode": "5034",
      "state": "SA",
      "latitude": -34.9510599,
      "longitude": 138.5925347,
      "distanceKm": 11.06,
      "direction": "S",
      "population": null
    },
    {
      "id": 11877,
      "name": "North Haven",
      "postcode": "5018",
      "state": "SA",
      "latitude": -34.7872004,
      "longitude": 138.4905349,
      "distanceKm": 11.07,
      "direction": "NW",
      "population": 14800
    },
    {
      "id": 11178,
      "name": "Glenside",
      "postcode": "5065",
      "state": "SA",
      "latitude": -34.9427375,
      "longitude": 138.6337521,
      "distanceKm": 11.12,
      "direction": "SE",
      "population": null
    },
    {
      "id": 11462,
      "name": "Salisbury",
      "postcode": "5108",
      "state": "SA",
      "latitude": -34.7640516,
      "longitude": 138.6418765,
      "distanceKm": 11.12,
      "direction": "NE",
      "population": 18594
    },
    {
      "id": 11066,
      "name": "Kurralta Park",
      "postcode": "5037",
      "state": "SA",
      "latitude": -34.9514285,
      "longitude": 138.5669815,
      "distanceKm": 11.16,
      "direction": "S",
      "population": null
    },
    {
      "id": 11443,
      "name": "Wynn Vale",
      "postcode": "5127",
      "state": "SA",
      "latitude": -34.7994176,
      "longitude": 138.6871415,
      "distanceKm": 11.16,
      "direction": "NE",
      "population": null
    },
    {
      "id": 11200,
      "name": "Netley",
      "postcode": "5037",
      "state": "SA",
      "latitude": -34.9493622,
      "longitude": 138.5492002,
      "distanceKm": 11.26,
      "direction": "S",
      "population": null
    },
    {
      "id": 11897,
      "name": "Erindale",
      "postcode": "5066",
      "state": "SA",
      "latitude": -34.9288917,
      "longitude": 138.6638814,
      "distanceKm": 11.32,
      "direction": "SE",
      "population": null
    },
    {
      "id": 11073,
      "name": "Everard Park",
      "postcode": "5035",
      "state": "SA",
      "latitude": -34.9541293,
      "longitude": 138.5746832,
      "distanceKm": 11.39,
      "direction": "S",
      "population": null
    },
    {
      "id": 11580,
      "name": "Snapper Point",
      "postcode": "5355",
      "state": "SA",
      "latitude": -34.7666614,
      "longitude": 138.5131091,
      "distanceKm": 11.39,
      "direction": "NW",
      "population": null
    },
    {
      "id": 11447,
      "name": "Athelstone",
      "postcode": "5076",
      "state": "SA",
      "latitude": -34.8714792,
      "longitude": 138.7054458,
      "distanceKm": 11.42,
      "direction": "E",
      "population": 9601
    },
    {
      "id": 11454,
      "name": "Woodforde",
      "postcode": "5072",
      "state": "SA",
      "latitude": -34.9036557,
      "longitude": 138.6907781,
      "distanceKm": 11.42,
      "direction": "SE",
      "population": null
    },
    {
      "id": 11207,
      "name": "Henley Beach South",
      "postcode": "5022",
      "state": "SA",
      "latitude": -34.9299358,
      "longitude": 138.5012182,
      "distanceKm": 11.45,
      "direction": "SW",
      "population": null
    },
    {
      "id": 11258,
      "name": "Rosslyn Park",
      "postcode": "5072",
      "state": "SA",
      "latitude": -34.9219389,
      "longitude": 138.6755282,
      "distanceKm": 11.51,
      "direction": "SE",
      "population": null
    },
    {
      "id": 11892,
      "name": "Adelaide Airport",
      "postcode": "5950",
      "state": "SA",
      "latitude": -34.946159,
      "longitude": 138.5307956,
      "distanceKm": 11.51,
      "direction": "SW",
      "population": 4
    },
    {
      "id": 11177,
      "name": "Frewville",
      "postcode": "5063",
      "state": "SA",
      "latitude": -34.9479853,
      "longitude": 138.6311935,
      "distanceKm": 11.56,
      "direction": "SE",
      "population": null
    },
    {
      "id": 11439,
      "name": "Ridgehaven",
      "postcode": "5097",
      "state": "SA",
      "latitude": -34.821255,
      "longitude": 138.7046604,
      "distanceKm": 11.64,
      "direction": "E",
      "population": null
    },
    {
      "id": 11466,
      "name": "Salisbury East",
      "postcode": "5109",
      "state": "SA",
      "latitude": -34.7764785,
      "longitude": 138.6721978,
      "distanceKm": 11.68,
      "direction": "NE",
      "population": 18454
    },
    {
      "id": 11876,
      "name": "Outer Harbor",
      "postcode": "5018",
      "state": "SA",
      "latitude": -34.7727146,
      "longitude": 138.4981585,
      "distanceKm": 11.7,
      "direction": "NW",
      "population": null
    },
    {
      "id": 11109,
      "name": "Millswood",
      "postcode": "5034",
      "state": "SA",
      "latitude": -34.9572425,
      "longitude": 138.5894966,
      "distanceKm": 11.72,
      "direction": "S",
      "population": null
    },
    {
      "id": 11468,
      "name": "Salisbury Plain",
      "postcode": "5109",
      "state": "SA",
      "latitude": -34.767408,
      "longitude": 138.6606036,
      "distanceKm": 11.75,
      "direction": "NE",
      "population": null
    },
    {
      "id": 11954,
      "name": "Linden Park",
      "postcode": "5065",
      "state": "SA",
      "latitude": -34.9435932,
      "longitude": 138.6472732,
      "distanceKm": 11.77,
      "direction": "SE",
      "population": null
    },
    {
      "id": 11910,
      "name": "Hyde Park",
      "postcode": "5061",
      "state": "SA",
      "latitude": -34.9565521,
      "longitude": 138.6029363,
      "distanceKm": 11.78,
      "direction": "S",
      "population": null
    },
    {
      "id": 11998,
      "name": "Hazelwood Park",
      "postcode": "5066",
      "state": "SA",
      "latitude": -34.9392651,
      "longitude": 138.6561379,
      "distanceKm": 11.8,
      "direction": "SE",
      "population": null
    },
    {
      "id": 11440,
      "name": "St Agnes",
      "postcode": "5097",
      "state": "SA",
      "latitude": -34.8307347,
      "longitude": 138.7107466,
      "distanceKm": 11.92,
      "direction": "E",
      "population": null
    },
    {
      "id": 11230,
      "name": "North Plympton",
      "postcode": "5037",
      "state": "SA",
      "latitude": -34.9557483,
      "longitude": 138.5495314,
      "distanceKm": 11.94,
      "direction": "S",
      "population": null
    },
    {
      "id": 11448,
      "name": "Auldana",
      "postcode": "5072",
      "state": "SA",
      "latitude": -34.9180046,
      "longitude": 138.6868888,
      "distanceKm": 12.02,
      "direction": "SE",
      "population": null
    },
    {
      "id": 11176,
      "name": "Fullarton",
      "postcode": "5063",
      "state": "SA",
      "latitude": -34.9540475,
      "longitude": 138.6263553,
      "distanceKm": 12.03,
      "direction": "SE",
      "population": null
    },
    {
      "id": 11072,
      "name": "Black Forest",
      "postcode": "5035",
      "state": "SA",
      "latitude": -34.9602768,
      "longitude": 138.576661,
      "distanceKm": 12.06,
      "direction": "S",
      "population": null
    },
    {
      "id": 11319,
      "name": "Light Passage",
      "postcode": "5355",
      "state": "SA",
      "latitude": -34.7613242,
      "longitude": 138.5091576,
      "distanceKm": 12.09,
      "direction": "NW",
      "population": null
    },
    {
      "id": 11058,
      "name": "Wattle Park",
      "postcode": "5066",
      "state": "SA",
      "latitude": -34.9272356,
      "longitude": 138.678485,
      "distanceKm": 12.11,
      "direction": "SE",
      "population": null
    },
    {
      "id": 11192,
      "name": "Glenunga",
      "postcode": "5064",
      "state": "SA",
      "latitude": -34.9505888,
      "longitude": 138.6392041,
      "distanceKm": 12.12,
      "direction": "SE",
      "population": null
    },
    {
      "id": 11438,
      "name": "Redwood Park",
      "postcode": "5097",
      "state": "SA",
      "latitude": -34.8115495,
      "longitude": 138.7069525,
      "distanceKm": 12.19,
      "direction": "E",
      "population": 16276
    },
    {
      "id": 11168,
      "name": "Malvern",
      "postcode": "5061",
      "state": "SA",
      "latitude": -34.9591393,
      "longitude": 138.6125368,
      "distanceKm": 12.22,
      "direction": "S",
      "population": null
    },
    {
      "id": 11071,
      "name": "Glandore",
      "postcode": "5037",
      "state": "SA",
      "latitude": -34.9615032,
      "longitude": 138.5683445,
      "distanceKm": 12.25,
      "direction": "S",
      "population": null
    },
    {
      "id": 11450,
      "name": "Highbury",
      "postcode": "5089",
      "state": "SA",
      "latitude": -34.8520517,
      "longitude": 138.7178758,
      "distanceKm": 12.34,
      "direction": "E",
      "population": null
    },
    {
      "id": 11130,
      "name": "West Beach",
      "postcode": "5024",
      "state": "SA",
      "latitude": -34.9451586,
      "longitude": 138.5091364,
      "distanceKm": 12.37,
      "direction": "SW",
      "population": 5175
    },
    {
      "id": 11579,
      "name": "Pelican Point1",
      "postcode": "5291",
      "state": "SA",
      "latitude": -34.7631095,
      "longitude": 138.5005135,
      "distanceKm": 12.39,
      "direction": "NW",
      "population": null
    },
    {
      "id": 11169,
      "name": "Unley Park",
      "postcode": "5061",
      "state": "SA",
      "latitude": -34.9625522,
      "longitude": 138.6014453,
      "distanceKm": 12.41,
      "direction": "S",
      "population": null
    },
    {
      "id": 11422,
      "name": "Salisbury North",
      "postcode": "5108",
      "state": "SA",
      "latitude": -34.745959,
      "longitude": 138.6276437,
      "distanceKm": 12.42,
      "direction": "NE",
      "population": 18487
    },
    {
      "id": 12037,
      "name": "Burnside",
      "postcode": "5066",
      "state": "SA",
      "latitude": -34.9399478,
      "longitude": 138.666656,
      "distanceKm": 12.43,
      "direction": "SE",
      "population": null
    },
    {
      "id": 11110,
      "name": "Kings Park",
      "postcode": "5034",
      "state": "SA",
      "latitude": -34.9635812,
      "longitude": 138.5927206,
      "distanceKm": 12.44,
      "direction": "S",
      "population": null
    },
    {
      "id": 11111,
      "name": "Clarence Park",
      "postcode": "5034",
      "state": "SA",
      "latitude": -34.963961,
      "longitude": 138.5836509,
      "distanceKm": 12.45,
      "direction": "S",
      "population": null
    },
    {
      "id": 11139,
      "name": "Plympton",
      "postcode": "5038",
      "state": "SA",
      "latitude": -34.9620679,
      "longitude": 138.554884,
      "distanceKm": 12.51,
      "direction": "S",
      "population": 26480
    },
    {
      "id": 11274,
      "name": "Stonyfell",
      "postcode": "5066",
      "state": "SA",
      "latitude": -34.9341531,
      "longitude": 138.6768146,
      "distanceKm": 12.54,
      "direction": "SE",
      "population": null
    },
    {
      "id": 11959,
      "name": "St Georges",
      "postcode": "5064",
      "state": "SA",
      "latitude": -34.9519971,
      "longitude": 138.64787,
      "distanceKm": 12.61,
      "direction": "SE",
      "population": null
    },
    {
      "id": 11991,
      "name": "Highgate",
      "postcode": "5063",
      "state": "SA",
      "latitude": -34.9616443,
      "longitude": 138.6216675,
      "distanceKm": 12.7,
      "direction": "S",
      "population": null
    },
    {
      "id": 11417,
      "name": "Burton",
      "postcode": "5110",
      "state": "SA",
      "latitude": -34.7377001,
      "longitude": 138.6001346,
      "distanceKm": 12.74,
      "direction": "N",
      "population": null
    },
    {
      "id": 11453,
      "name": "Skye",
      "postcode": "5072",
      "state": "SA",
      "latitude": -34.9244298,
      "longitude": 138.692899,
      "distanceKm": 12.89,
      "direction": "SE",
      "population": null
    },
    {
      "id": 11193,
      "name": "Myrtle Bank",
      "postcode": "5064",
      "state": "SA",
      "latitude": -34.9605623,
      "longitude": 138.6337941,
      "distanceKm": 12.94,
      "direction": "SE",
      "population": null
    },
    {
      "id": 11467,
      "name": "Salisbury Park",
      "postcode": "5109",
      "state": "SA",
      "latitude": -34.7587077,
      "longitude": 138.6682306,
      "distanceKm": 12.94,
      "direction": "NE",
      "population": null
    },
    {
      "id": 11907,
      "name": "Beaumont",
      "postcode": "5066",
      "state": "SA",
      "latitude": -34.9499756,
      "longitude": 138.6593163,
      "distanceKm": 12.95,
      "direction": "SE",
      "population": null
    },
    {
      "id": 11441,
      "name": "Surrey Downs",
      "postcode": "5126",
      "state": "SA",
      "latitude": -34.7995126,
      "longitude": 138.7115211,
      "distanceKm": 13.11,
      "direction": "E",
      "population": null
    },
    {
      "id": 11950,
      "name": "Cumberland Park",
      "postcode": "5041",
      "state": "SA",
      "latitude": -34.9720383,
      "longitude": 138.5866928,
      "distanceKm": 13.35,
      "direction": "S",
      "population": null
    },
    {
      "id": 11965,
      "name": "Westbourne Park",
      "postcode": "5041",
      "state": "SA",
      "latitude": -34.9716448,
      "longitude": 138.5952464,
      "distanceKm": 13.35,
      "direction": "S",
      "population": null
    },
    {
      "id": 11199,
      "name": "Camden Park",
      "postcode": "5038",
      "state": "SA",
      "latitude": -34.967136,
      "longitude": 138.5414065,
      "distanceKm": 13.36,
      "direction": "S",
      "population": null
    },
    {
      "id": 12007,
      "name": "Hawthorn",
      "postcode": "5062",
      "state": "SA",
      "latitude": -34.9709849,
      "longitude": 138.6041231,
      "distanceKm": 13.37,
      "direction": "S",
      "population": null
    },
    {
      "id": 11265,
      "name": "Teringie",
      "postcode": "5072",
      "state": "SA",
      "latitude": -34.9149989,
      "longitude": 138.7077959,
      "distanceKm": 13.4,
      "direction": "SE",
      "population": null
    },
    {
      "id": 11194,
      "name": "Glen Osmond",
      "postcode": "5064",
      "state": "SA",
      "latitude": -34.9594803,
      "longitude": 138.6489781,
      "distanceKm": 13.4,
      "direction": "SE",
      "population": null
    },
    {
      "id": 11899,
      "name": "Clarence Gardens",
      "postcode": "5039",
      "state": "SA",
      "latitude": -34.9724861,
      "longitude": 138.5777745,
      "distanceKm": 13.41,
      "direction": "S",
      "population": null
    },
    {
      "id": 11353,
      "name": "Salisbury Heights",
      "postcode": "5109",
      "state": "SA",
      "latitude": -34.762779,
      "longitude": 138.6837193,
      "distanceKm": 13.51,
      "direction": "NE",
      "population": null
    },
    {
      "id": 11904,
      "name": "Kingswood",
      "postcode": "5062",
      "state": "SA",
      "latitude": -34.9708157,
      "longitude": 138.6138099,
      "distanceKm": 13.51,
      "direction": "S",
      "population": null
    },
    {
      "id": 11893,
      "name": "Novar Gardens",
      "postcode": "5040",
      "state": "SA",
      "latitude": -34.9659834,
      "longitude": 138.5316592,
      "distanceKm": 13.52,
      "direction": "SW",
      "population": null
    },
    {
      "id": 11917,
      "name": "Vista",
      "postcode": "5091",
      "state": "SA",
      "latitude": -34.8358304,
      "longitude": 138.7308991,
      "distanceKm": 13.65,
      "direction": "E",
      "population": null
    },
    {
      "id": 11156,
      "name": "South Plympton",
      "postcode": "5038",
      "state": "SA",
      "latitude": -34.9737586,
      "longitude": 138.5601708,
      "distanceKm": 13.7,
      "direction": "S",
      "population": null
    },
    {
      "id": 12024,
      "name": "Netherby",
      "postcode": "5062",
      "state": "SA",
      "latitude": -34.9704959,
      "longitude": 138.6250739,
      "distanceKm": 13.73,
      "direction": "S",
      "population": null
    },
    {
      "id": 11352,
      "name": "Elizabeth Vale",
      "postcode": "5112",
      "state": "SA",
      "latitude": -34.7489643,
      "longitude": 138.6676385,
      "distanceKm": 13.78,
      "direction": "NE",
      "population": null
    },
    {
      "id": 11354,
      "name": "Tea Tree Gully",
      "postcode": "5091",
      "state": "SA",
      "latitude": -34.8218243,
      "longitude": 138.7292797,
      "distanceKm": 13.79,
      "direction": "E",
      "population": null
    },
    {
      "id": 11988,
      "name": "Urrbrae",
      "postcode": "5064",
      "state": "SA",
      "latitude": -34.9681485,
      "longitude": 138.638607,
      "distanceKm": 13.89,
      "direction": "SE",
      "population": null
    },
    {
      "id": 11378,
      "name": "Elizabeth South",
      "postcode": "5112",
      "state": "SA",
      "latitude": -34.7411213,
      "longitude": 138.6564373,
      "distanceKm": 13.99,
      "direction": "NE",
      "population": null
    },
    {
      "id": 11157,
      "name": "Plympton Park",
      "postcode": "5038",
      "state": "SA",
      "latitude": -34.9759315,
      "longitude": 138.5514765,
      "distanceKm": 14.08,
      "direction": "S",
      "population": null
    },
    {
      "id": 11429,
      "name": "Banksia Park",
      "postcode": "5091",
      "state": "SA",
      "latitude": -34.8105248,
      "longitude": 138.7305864,
      "distanceKm": 14.26,
      "direction": "E",
      "population": null
    },
    {
      "id": 11129,
      "name": "Glenelg North",
      "postcode": "5045",
      "state": "SA",
      "latitude": -34.9687529,
      "longitude": 138.5180699,
      "distanceKm": 14.27,
      "direction": "SW",
      "population": null
    },
    {
      "id": 11195,
      "name": "Mount Osmond",
      "postcode": "5064",
      "state": "SA",
      "latitude": -34.9639921,
      "longitude": 138.6593756,
      "distanceKm": 14.28,
      "direction": "SE",
      "population": null
    },
    {
      "id": 11183,
      "name": "Edwardstown",
      "postcode": "5039",
      "state": "SA",
      "latitude": -34.9802157,
      "longitude": 138.5694275,
      "distanceKm": 14.31,
      "direction": "S",
      "population": 14563
    },
    {
      "id": 11418,
      "name": "Direk",
      "postcode": "5110",
      "state": "SA",
      "latitude": -34.7234261,
      "longitude": 138.6091055,
      "distanceKm": 14.43,
      "direction": "N",
      "population": null
    },
    {
      "id": 11943,
      "name": "Horsnell Gully",
      "postcode": "5141",
      "state": "SA",
      "latitude": -34.9351115,
      "longitude": 138.7043814,
      "distanceKm": 14.45,
      "direction": "SE",
      "population": null
    },
    {
      "id": 11935,
      "name": "Lower Mitcham",
      "postcode": "5062",
      "state": "SA",
      "latitude": -34.9809947,
      "longitude": 138.6056869,
      "distanceKm": 14.49,
      "direction": "S",
      "population": null
    },
    {
      "id": 12039,
      "name": "Newmans Nursery Ruins",
      "postcode": "5091",
      "state": "SA",
      "latitude": -34.8350416,
      "longitude": 138.7401741,
      "distanceKm": 14.5,
      "direction": "E",
      "population": null
    },
    {
      "id": 11430,
      "name": "Fairview Park",
      "postcode": "5126",
      "state": "SA",
      "latitude": -34.80037,
      "longitude": 138.7287703,
      "distanceKm": 14.51,
      "direction": "E",
      "population": null
    },
    {
      "id": 11112,
      "name": "Colonel Light Gardens",
      "postcode": "5041",
      "state": "SA",
      "latitude": -34.9835849,
      "longitude": 138.5946908,
      "distanceKm": 14.67,
      "direction": "S",
      "population": 15842
    },
    {
      "id": 11973,
      "name": "Greenhill",
      "postcode": "5140",
      "state": "SA",
      "latitude": -34.9498921,
      "longitude": 138.6918354,
      "distanceKm": 14.76,
      "direction": "SE",
      "population": null
    },
    {
      "id": 11974,
      "name": "Springfield",
      "postcode": "5062",
      "state": "SA",
      "latitude": -34.9784586,
      "longitude": 138.6327195,
      "distanceKm": 14.78,
      "direction": "S",
      "population": null
    },
    {
      "id": 11976,
      "name": "Waterfall Gully",
      "postcode": "5066",
      "state": "SA",
      "latitude": -34.9617367,
      "longitude": 138.6744547,
      "distanceKm": 14.8,
      "direction": "SE",
      "population": null
    },
    {
      "id": 11167,
      "name": "Melrose Park",
      "postcode": "5039",
      "state": "SA",
      "latitude": -34.9852656,
      "longitude": 138.5786976,
      "distanceKm": 14.82,
      "direction": "S",
      "population": null
    },
    {
      "id": 11113,
      "name": "Daw Park",
      "postcode": "5041",
      "state": "SA",
      "latitude": -34.9853742,
      "longitude": 138.5877817,
      "distanceKm": 14.84,
      "direction": "S",
      "population": null
    },
    {
      "id": 12003,
      "name": "Torrens Park",
      "postcode": "5062",
      "state": "SA",
      "latitude": -34.9852635,
      "longitude": 138.6136567,
      "distanceKm": 15.08,
      "direction": "S",
      "population": null
    },
    {
      "id": 11368,
      "name": "Elizabeth Grove",
      "postcode": "5112",
      "state": "SA",
      "latitude": -34.7362048,
      "longitude": 138.6703138,
      "distanceKm": 15.11,
      "direction": "NE",
      "population": null
    },
    {
      "id": 11432,
      "name": "Greenwith",
      "postcode": "5125",
      "state": "SA",
      "latitude": -34.7651613,
      "longitude": 138.7106607,
      "distanceKm": 15.13,
      "direction": "NE",
      "population": 9017
    },
    {
      "id": 11997,
      "name": "Mitcham",
      "postcode": "5062",
      "state": "SA",
      "latitude": -34.9842362,
      "longitude": 138.6230072,
      "distanceKm": 15.15,
      "direction": "S",
      "population": null
    },
    {
      "id": 11160,
      "name": "Morphettville",
      "postcode": "5043",
      "state": "SA",
      "latitude": -34.9846034,
      "longitude": 138.5430906,
      "distanceKm": 15.19,
      "direction": "S",
      "population": 16531
    },
    {
      "id": 11315,
      "name": "Devil's Elbow",
      "postcode": "5150",
      "state": "SA",
      "latitude": -34.9681164,
      "longitude": 138.6709214,
      "distanceKm": 15.22,
      "direction": "SE",
      "population": null
    },
    {
      "id": 11159,
      "name": "Ascot Park",
      "postcode": "5043",
      "state": "SA",
      "latitude": -34.9881162,
      "longitude": 138.5610603,
      "distanceKm": 15.26,
      "direction": "S",
      "population": null
    },
    {
      "id": 11128,
      "name": "Glenelg East",
      "postcode": "5045",
      "state": "SA",
      "latitude": -34.9816292,
      "longitude": 138.5258321,
      "distanceKm": 15.33,
      "direction": "SW",
      "population": null
    },
    {
      "id": 11419,
      "name": "Edinburgh",
      "postcode": "5111",
      "state": "SA",
      "latitude": -34.7191379,
      "longitude": 138.6350042,
      "distanceKm": 15.46,
      "direction": "N",
      "population": null
    },
    {
      "id": 11928,
      "name": "Leawood Gardens",
      "postcode": "5150",
      "state": "SA",
      "latitude": -34.9713981,
      "longitude": 138.6696643,
      "distanceKm": 15.47,
      "direction": "SE",
      "population": null
    },
    {
      "id": 11158,
      "name": "Park Holme",
      "postcode": "5043",
      "state": "SA",
      "latitude": -34.9889082,
      "longitude": 138.5521769,
      "distanceKm": 15.48,
      "direction": "S",
      "population": null
    },
    {
      "id": 11267,
      "name": "Clapham",
      "postcode": "5062",
      "state": "SA",
      "latitude": -34.9901443,
      "longitude": 138.6050177,
      "distanceKm": 15.49,
      "direction": "S",
      "population": null
    },
    {
      "id": 12077,
      "name": "Wylie's Corner",
      "postcode": "5150",
      "state": "SA",
      "latitude": -34.9745156,
      "longitude": 138.6653376,
      "distanceKm": 15.57,
      "direction": "SE",
      "population": null
    },
    {
      "id": 11424,
      "name": "Waterloo Corner",
      "postcode": "5110",
      "state": "SA",
      "latitude": -34.7117818,
      "longitude": 138.5673475,
      "distanceKm": 15.59,
      "direction": "N",
      "population": null
    },
    {
      "id": 11947,
      "name": "Glenelg",
      "postcode": "5045",
      "state": "SA",
      "latitude": -34.9803673,
      "longitude": 138.5143342,
      "distanceKm": 15.59,
      "direction": "SW",
      "population": null
    },
    {
      "id": 11431,
      "name": "Golden Grove",
      "postcode": "5125",
      "state": "SA",
      "latitude": -34.7773871,
      "longitude": 138.7290659,
      "distanceKm": 15.71,
      "direction": "NE",
      "population": 10406
    },
    {
      "id": 11161,
      "name": "Glengowrie",
      "postcode": "5044",
      "state": "SA",
      "latitude": -34.9873641,
      "longitude": 138.5335468,
      "distanceKm": 15.71,
      "direction": "S",
      "population": null
    },
    {
      "id": 11444,
      "name": "Yatala Vale",
      "postcode": "5126",
      "state": "SA",
      "latitude": -34.7940132,
      "longitude": 138.7405527,
      "distanceKm": 15.78,
      "direction": "E",
      "population": null
    },
    {
      "id": 11952,
      "name": "Brown Hill Creek",
      "postcode": "5062",
      "state": "SA",
      "latitude": -34.9842639,
      "longitude": 138.6502773,
      "distanceKm": 15.94,
      "direction": "SE",
      "population": null
    },
    {
      "id": 11266,
      "name": "Houghton",
      "postcode": "5131",
      "state": "SA",
      "latitude": -34.8299336,
      "longitude": 138.7555961,
      "distanceKm": 15.98,
      "direction": "E",
      "population": null
    },
    {
      "id": 11348,
      "name": "Hillbank",
      "postcode": "5112",
      "state": "SA",
      "latitude": -34.7351475,
      "longitude": 138.6873019,
      "distanceKm": 16.08,
      "direction": "NE",
      "population": null
    },
    {
      "id": 11895,
      "name": "Lynton",
      "postcode": "5062",
      "state": "SA",
      "latitude": -34.9973436,
      "longitude": 138.6073941,
      "distanceKm": 16.31,
      "direction": "S",
      "population": null
    },
    {
      "id": 11115,
      "name": "Clovelly Park",
      "postcode": "5042",
      "state": "SA",
      "latitude": -34.998473,
      "longitude": 138.5708472,
      "distanceKm": 16.32,
      "direction": "S",
      "population": null
    },
    {
      "id": 11127,
      "name": "Glenelg South",
      "postcode": "5045",
      "state": "SA",
      "latitude": -34.9882596,
      "longitude": 138.5147879,
      "distanceKm": 16.38,
      "direction": "SW",
      "population": null
    },
    {
      "id": 11114,
      "name": "Panorama",
      "postcode": "5041",
      "state": "SA",
      "latitude": -34.9998042,
      "longitude": 138.5972359,
      "distanceKm": 16.48,
      "direction": "S",
      "population": 8475
    },
    {
      "id": 11949,
      "name": "Cleland",
      "postcode": "5152",
      "state": "SA",
      "latitude": -34.9682869,
      "longitude": 138.6957514,
      "distanceKm": 16.54,
      "direction": "SE",
      "population": null
    },
    {
      "id": 11823,
      "name": "Elizabeth",
      "postcode": "5112",
      "state": "SA",
      "latitude": -34.7202612,
      "longitude": 138.6693371,
      "distanceKm": 16.59,
      "direction": "NE",
      "population": 10829
    },
    {
      "id": 11365,
      "name": "Elizabeth East",
      "postcode": "5112",
      "state": "SA",
      "latitude": -34.7260216,
      "longitude": 138.6815148,
      "distanceKm": 16.61,
      "direction": "NE",
      "population": 14047
    },
    {
      "id": 11096,
      "name": "Pasadena",
      "postcode": "5042",
      "state": "SA",
      "latitude": -35.0027228,
      "longitude": 138.5886214,
      "distanceKm": 16.76,
      "direction": "S",
      "population": null
    },
    {
      "id": 11854,
      "name": "Belair",
      "postcode": "5052",
      "state": "SA",
      "latitude": -34.9993826,
      "longitude": 138.625499,
      "distanceKm": 16.84,
      "direction": "S",
      "population": 4896
    },
    {
      "id": 11822,
      "name": "Castambul",
      "postcode": "5076",
      "state": "SA",
      "latitude": -34.8715708,
      "longitude": 138.765632,
      "distanceKm": 16.85,
      "direction": "E",
      "population": null
    },
    {
      "id": 11104,
      "name": "St Marys",
      "postcode": "5042",
      "state": "SA",
      "latitude": -35.0042228,
      "longitude": 138.5798367,
      "distanceKm": 16.92,
      "direction": "S",
      "population": null
    },
    {
      "id": 11126,
      "name": "Somerton Park",
      "postcode": "5044",
      "state": "SA",
      "latitude": -34.9964662,
      "longitude": 138.5198411,
      "distanceKm": 17.06,
      "direction": "SW",
      "population": null
    },
    {
      "id": 11117,
      "name": "Mitchell Park",
      "postcode": "5043",
      "state": "SA",
      "latitude": -35.0050596,
      "longitude": 138.5623283,
      "distanceKm": 17.12,
      "direction": "S",
      "population": 16516
    },
    {
      "id": 11398,
      "name": "Paracombe",
      "postcode": "5132",
      "state": "SA",
      "latitude": -34.8480469,
      "longitude": 138.7702996,
      "distanceKm": 17.14,
      "direction": "E",
      "population": null
    },
    {
      "id": 11118,
      "name": "Marion",
      "postcode": "5043",
      "state": "SA",
      "latitude": -35.0063569,
      "longitude": 138.5535092,
      "distanceKm": 17.37,
      "direction": "S",
      "population": null
    },
    {
      "id": 11873,
      "name": "Tonsley",
      "postcode": "5042",
      "state": "SA",
      "latitude": -35.0082318,
      "longitude": 138.572569,
      "distanceKm": 17.39,
      "direction": "S",
      "population": null
    },
    {
      "id": 11119,
      "name": "Oaklands Park",
      "postcode": "5046",
      "state": "SA",
      "latitude": -35.0066862,
      "longitude": 138.544563,
      "distanceKm": 17.55,
      "direction": "S",
      "population": null
    },
    {
      "id": 11824,
      "name": "Edinburgh North",
      "postcode": "5113",
      "state": "SA",
      "latitude": -34.7043026,
      "longitude": 138.658179,
      "distanceKm": 17.74,
      "direction": "NE",
      "population": null
    },
    {
      "id": 11122,
      "name": "Warradale",
      "postcode": "5046",
      "state": "SA",
      "latitude": -35.0073785,
      "longitude": 138.5355935,
      "distanceKm": 17.8,
      "direction": "S",
      "population": 16190
    },
    {
      "id": 11845,
      "name": "Gould Creek",
      "postcode": "5114",
      "state": "SA",
      "latitude": -34.7440517,
      "longitude": 138.7289415,
      "distanceKm": 17.92,
      "direction": "NE",
      "population": null
    },
    {
      "id": 11124,
      "name": "North Brighton",
      "postcode": "5048",
      "state": "SA",
      "latitude": -35.00504,
      "longitude": 138.5209168,
      "distanceKm": 17.93,
      "direction": "S",
      "population": null
    },
    {
      "id": 11367,
      "name": "Elizabeth Park",
      "postcode": "5113",
      "state": "SA",
      "latitude": -34.7123891,
      "longitude": 138.6852025,
      "distanceKm": 18.07,
      "direction": "NE",
      "population": null
    },
    {
      "id": 11421,
      "name": "Penfield",
      "postcode": "5121",
      "state": "SA",
      "latitude": -34.6916809,
      "longitude": 138.6204389,
      "distanceKm": 18.08,
      "direction": "N",
      "population": null
    },
    {
      "id": 12132,
      "name": "The Palms Residential Village",
      "postcode": "5120",
      "state": "SA",
      "latitude": -34.6894949,
      "longitude": 138.5578137,
      "distanceKm": 18.14,
      "direction": "N",
      "population": null
    },
    {
      "id": 11152,
      "name": "Summertown",
      "postcode": "5141",
      "state": "SA",
      "latitude": -34.9594198,
      "longitude": 138.7321907,
      "distanceKm": 18.14,
      "direction": "SE",
      "population": null
    },
    {
      "id": 11853,
      "name": "Glenalta",
      "postcode": "5052",
      "state": "SA",
      "latitude": -35.0119208,
      "longitude": 138.6282242,
      "distanceKm": 18.25,
      "direction": "S",
      "population": null
    },
    {
      "id": 11125,
      "name": "Hove",
      "postcode": "5048",
      "state": "SA",
      "latitude": -35.0111931,
      "longitude": 138.5226547,
      "distanceKm": 18.53,
      "direction": "S",
      "population": null
    },
    {
      "id": 12148,
      "name": "Lower Hermitage",
      "postcode": "5131",
      "state": "SA",
      "latitude": -34.7943317,
      "longitude": 138.7745355,
      "distanceKm": 18.65,
      "direction": "E",
      "population": null
    },
    {
      "id": 11351,
      "name": "Elizabeth North",
      "postcode": "5113",
      "state": "SA",
      "latitude": -34.7008443,
      "longitude": 138.6770148,
      "distanceKm": 18.82,
      "direction": "NE",
      "population": null
    },
    {
      "id": 11855,
      "name": "Eden Hills",
      "postcode": "5050",
      "state": "SA",
      "latitude": -35.0210612,
      "longitude": 138.5956889,
      "distanceKm": 18.83,
      "direction": "S",
      "population": null
    },
    {
      "id": 11116,
      "name": "Bedford Park",
      "postcode": "5042",
      "state": "SA",
      "latitude": -35.0233978,
      "longitude": 138.5698409,
      "distanceKm": 19.09,
      "direction": "S",
      "population": null
    },
    {
      "id": 11851,
      "name": "Blackwood",
      "postcode": "5051",
      "state": "SA",
      "latitude": -35.0223835,
      "longitude": 138.6128068,
      "distanceKm": 19.13,
      "direction": "S",
      "population": 12963
    },
    {
      "id": 11874,
      "name": "Eyre",
      "postcode": "5121",
      "state": "SA",
      "latitude": -34.688566,
      "longitude": 138.6507761,
      "distanceKm": 19.13,
      "direction": "NE",
      "population": null
    },
    {
      "id": 11120,
      "name": "Sturt",
      "postcode": "5047",
      "state": "SA",
      "latitude": -35.0227428,
      "longitude": 138.5546331,
      "distanceKm": 19.15,
      "direction": "S",
      "population": null
    },
    {
      "id": 11238,
      "name": "Hawthorndene",
      "postcode": "5051",
      "state": "SA",
      "latitude": -35.0214465,
      "longitude": 138.6289085,
      "distanceKm": 19.29,
      "direction": "S",
      "population": null
    },
    {
      "id": 11065,
      "name": "Brighton",
      "postcode": "5048",
      "state": "SA",
      "latitude": -35.0184242,
      "longitude": 138.5223596,
      "distanceKm": 19.31,
      "direction": "S",
      "population": null
    },
    {
      "id": 11121,
      "name": "Seacombe Gardens",
      "postcode": "5047",
      "state": "SA",
      "latitude": -35.0233558,
      "longitude": 138.5457983,
      "distanceKm": 19.34,
      "direction": "S",
      "population": null
    },
    {
      "id": 11407,
      "name": "Davoren Park",
      "postcode": "5113",
      "state": "SA",
      "latitude": -34.6910694,
      "longitude": 138.6683869,
      "distanceKm": 19.46,
      "direction": "NE",
      "population": 18313
    },
    {
      "id": 11151,
      "name": "Piccadilly",
      "postcode": "5151",
      "state": "SA",
      "latitude": -34.9822479,
      "longitude": 138.7262528,
      "distanceKm": 19.53,
      "direction": "SE",
      "population": null
    },
    {
      "id": 11123,
      "name": "Dover Gardens",
      "postcode": "5048",
      "state": "SA",
      "latitude": -35.023994,
      "longitude": 138.5369482,
      "distanceKm": 19.57,
      "direction": "S",
      "population": null
    },
    {
      "id": 11416,
      "name": "Buckland Park",
      "postcode": "5120",
      "state": "SA",
      "latitude": -34.6777748,
      "longitude": 138.5387677,
      "distanceKm": 19.71,
      "direction": "N",
      "population": null
    },
    {
      "id": 11375,
      "name": "Elizabeth Downs",
      "postcode": "5113",
      "state": "SA",
      "latitude": -34.6993155,
      "longitude": 138.6935867,
      "distanceKm": 19.71,
      "direction": "NE",
      "population": null
    },
    {
      "id": 12125,
      "name": "Kenneth Stirling Conservation Park - Burdetts Scrub",
      "postcode": "5139",
      "state": "SA",
      "latitude": -34.9183666,
      "longitude": 138.7835465,
      "distanceKm": 19.78,
      "direction": "E",
      "population": null
    },
    {
      "id": 11856,
      "name": "Bellevue Heights",
      "postcode": "5050",
      "state": "SA",
      "latitude": -35.0301985,
      "longitude": 138.5831094,
      "distanceKm": 19.8,
      "direction": "S",
      "population": 7608
    },
    {
      "id": 11150,
      "name": "Crafers",
      "postcode": "5152",
      "state": "SA",
      "latitude": -34.9933414,
      "longitude": 138.7162883,
      "distanceKm": 19.89,
      "direction": "SE",
      "population": null
    },
    {
      "id": 11921,
      "name": "South Brighton",
      "postcode": "5048",
      "state": "SA",
      "latitude": -35.025966,
      "longitude": 138.5253346,
      "distanceKm": 20.04,
      "direction": "S",
      "population": null
    },
    {
      "id": 12099,
      "name": "Australian & American Forces Memorial Plantation",
      "postcode": "5156",
      "state": "SA",
      "latitude": -35.0163199,
      "longitude": 138.674228,
      "distanceKm": 20.08,
      "direction": "SE",
      "population": null
    },
    {
      "id": 11196,
      "name": "Crafers West",
      "postcode": "5152",
      "state": "SA",
      "latitude": -35.0069818,
      "longitude": 138.698113,
      "distanceKm": 20.19,
      "direction": "SE",
      "population": null
    },
    {
      "id": 11260,
      "name": "Darlington",
      "postcode": "5047",
      "state": "SA",
      "latitude": -35.032984,
      "longitude": 138.5562895,
      "distanceKm": 20.26,
      "direction": "S",
      "population": null
    },
    {
      "id": 11469,
      "name": "Craigmore",
      "postcode": "5114",
      "state": "SA",
      "latitude": -34.7006365,
      "longitude": 138.7095493,
      "distanceKm": 20.38,
      "direction": "NE",
      "population": null
    },
    {
      "id": 11857,
      "name": "Seacombe Heights",
      "postcode": "5047",
      "state": "SA",
      "latitude": -35.0337432,
      "longitude": 138.5461915,
      "distanceKm": 20.47,
      "direction": "S",
      "population": null
    },
    {
      "id": 11423,
      "name": "Virginia",
      "postcode": "5120",
      "state": "SA",
      "latitude": -34.666952,
      "longitude": 138.560977,
      "distanceKm": 20.59,
      "direction": "N",
      "population": null
    },
    {
      "id": 11405,
      "name": "Smithfield",
      "postcode": "5114",
      "state": "SA",
      "latitude": -34.6848432,
      "longitude": 138.686233,
      "distanceKm": 20.79,
      "direction": "NE",
      "population": null
    },
    {
      "id": 11850,
      "name": "Craigburn Farm",
      "postcode": "5051",
      "state": "SA",
      "latitude": -35.0374723,
      "longitude": 138.6125064,
      "distanceKm": 20.79,
      "direction": "S",
      "population": null
    },
    {
      "id": 11406,
      "name": "Andrews Farm",
      "postcode": "5114",
      "state": "SA",
      "latitude": -34.6749515,
      "longitude": 138.6595143,
      "distanceKm": 20.82,
      "direction": "NE",
      "population": null
    },
    {
      "id": 11983,
      "name": "Seacliff",
      "postcode": "5049",
      "state": "SA",
      "latitude": -35.0322783,
      "longitude": 138.5205924,
      "distanceKm": 20.83,
      "direction": "S",
      "population": null
    },
    {
      "id": 11930,
      "name": "MacDonald Park",
      "postcode": "5121",
      "state": "SA",
      "latitude": -34.6700071,
      "longitude": 138.6407608,
      "distanceKm": 20.84,
      "direction": "N",
      "population": null
    },
    {
      "id": 11149,
      "name": "Stirling",
      "postcode": "5152",
      "state": "SA",
      "latitude": -35.0047044,
      "longitude": 138.7163341,
      "distanceKm": 20.9,
      "direction": "SE",
      "population": null
    },
    {
      "id": 12035,
      "name": "Thomas Hill",
      "postcode": "5076",
      "state": "SA",
      "latitude": -34.8795853,
      "longitude": 138.8097534,
      "distanceKm": 20.97,
      "direction": "E",
      "population": null
    },
    {
      "id": 12151,
      "name": "Millbrook",
      "postcode": "5231",
      "state": "SA",
      "latitude": -34.8238021,
      "longitude": 138.809837,
      "distanceKm": 20.99,
      "direction": "E",
      "population": null
    },
    {
      "id": 11866,
      "name": "Upper Sturt",
      "postcode": "5156",
      "state": "SA",
      "latitude": -35.021931,
      "longitude": 138.6862993,
      "distanceKm": 21.12,
      "direction": "SE",
      "population": null
    },
    {
      "id": 11849,
      "name": "Smithfield Plains",
      "postcode": "5114",
      "state": "SA",
      "latitude": -34.676735,
      "longitude": 138.676858,
      "distanceKm": 21.23,
      "direction": "NE",
      "population": null
    },
    {
      "id": 11946,
      "name": "Seaview Downs",
      "postcode": "5049",
      "state": "SA",
      "latitude": -35.04215,
      "longitude": 138.5383393,
      "distanceKm": 21.52,
      "direction": "S",
      "population": null
    },
    {
      "id": 11957,
      "name": "Kingston Park",
      "postcode": "5049",
      "state": "SA",
      "latitude": -35.0387571,
      "longitude": 138.5177037,
      "distanceKm": 21.59,
      "direction": "S",
      "population": null
    },
    {
      "id": 11963,
      "name": "Penfield Gardens",
      "postcode": "5121",
      "state": "SA",
      "latitude": -34.658468,
      "longitude": 138.6132386,
      "distanceKm": 21.62,
      "direction": "N",
      "population": null
    },
    {
      "id": 11859,
      "name": "Seacliff Park",
      "postcode": "5049",
      "state": "SA",
      "latitude": -35.0426562,
      "longitude": 138.5294554,
      "distanceKm": 21.74,
      "direction": "S",
      "population": null
    },
    {
      "id": 11852,
      "name": "Coromandel Valley",
      "postcode": "5051",
      "state": "SA",
      "latitude": -35.0450223,
      "longitude": 138.6236483,
      "distanceKm": 21.77,
      "direction": "S",
      "population": 4469
    },
    {
      "id": 12149,
      "name": "Forest Range",
      "postcode": "5139",
      "state": "SA",
      "latitude": -34.9324237,
      "longitude": 138.8000483,
      "distanceKm": 21.78,
      "direction": "E",
      "population": null
    },
    {
      "id": 11816,
      "name": "Flagstaff Hill",
      "postcode": "5159",
      "state": "SA",
      "latitude": -35.0486099,
      "longitude": 138.5852223,
      "distanceKm": 21.85,
      "direction": "S",
      "population": 10784
    },
    {
      "id": 12133,
      "name": "Riverlea",
      "postcode": "5120",
      "state": "SA",
      "latitude": -34.6620803,
      "longitude": 138.5167877,
      "distanceKm": 21.89,
      "direction": "N",
      "population": null
    },
    {
      "id": 11518,
      "name": "Blakes Crossing",
      "postcode": "5114",
      "state": "SA",
      "latitude": -34.6784301,
      "longitude": 138.7010705,
      "distanceKm": 22.06,
      "direction": "NE",
      "population": null
    },
    {
      "id": 12090,
      "name": "Riverlea Park",
      "postcode": "5120",
      "state": "SA",
      "latitude": -34.6595457,
      "longitude": 138.5171699,
      "distanceKm": 22.15,
      "direction": "N",
      "population": null
    },
    {
      "id": 11846,
      "name": "Sampson Flat",
      "postcode": "5114",
      "state": "SA",
      "latitude": -34.7489957,
      "longitude": 138.791576,
      "distanceKm": 22.24,
      "direction": "NE",
      "population": null
    },
    {
      "id": 11473,
      "name": "One Tree Hill",
      "postcode": "5114",
      "state": "SA",
      "latitude": -34.7186911,
      "longitude": 138.7656403,
      "distanceKm": 22.3,
      "direction": "NE",
      "population": 2473
    },
    {
      "id": 12029,
      "name": "Coromandel East",
      "postcode": "5157",
      "state": "SA",
      "latitude": -35.047407,
      "longitude": 138.6490488,
      "distanceKm": 22.54,
      "direction": "S",
      "population": null
    },
    {
      "id": 12127,
      "name": "Kenneth Stirling Conservation Park - Fillsell Hill",
      "postcode": "5139",
      "state": "SA",
      "latitude": -34.9586235,
      "longitude": 138.7934635,
      "distanceKm": 22.61,
      "direction": "SE",
      "population": null
    },
    {
      "id": 12150,
      "name": "Mount George",
      "postcode": "5155",
      "state": "SA",
      "latitude": -34.9914668,
      "longitude": 138.7635394,
      "distanceKm": 22.65,
      "direction": "SE",
      "population": null
    },
    {
      "id": 11343,
      "name": "Blakeview",
      "postcode": "5114",
      "state": "SA",
      "latitude": -34.6756176,
      "longitude": 138.710052,
      "distanceKm": 22.74,
      "direction": "NE",
      "population": null
    },
    {
      "id": 11860,
      "name": "Marino",
      "postcode": "5049",
      "state": "SA",
      "latitude": -35.0499168,
      "longitude": 138.5153326,
      "distanceKm": 22.84,
      "direction": "S",
      "population": null
    },
    {
      "id": 11404,
      "name": "Munno Para",
      "postcode": "5115",
      "state": "SA",
      "latitude": -34.6655937,
      "longitude": 138.6900298,
      "distanceKm": 22.86,
      "direction": "NE",
      "population": null
    },
    {
      "id": 11148,
      "name": "Aldgate",
      "postcode": "5154",
      "state": "SA",
      "latitude": -35.0152371,
      "longitude": 138.7351789,
      "distanceKm": 22.86,
      "direction": "SE",
      "population": null
    },
    {
      "id": 11093,
      "name": "O'Halloran Hill",
      "postcode": "5158",
      "state": "SA",
      "latitude": -35.0570961,
      "longitude": 138.5536021,
      "distanceKm": 22.94,
      "direction": "S",
      "population": null
    },
    {
      "id": 11408,
      "name": "Munno Para West",
      "postcode": "5115",
      "state": "SA",
      "latitude": -34.6572412,
      "longitude": 138.6697638,
      "distanceKm": 22.99,
      "direction": "NE",
      "population": null
    },
    {
      "id": 12126,
      "name": "Kenneth Stirling Conservation Park - Wottons Scrub",
      "postcode": "5155",
      "state": "SA",
      "latitude": -34.9874238,
      "longitude": 138.7760601,
      "distanceKm": 23.2,
      "direction": "SE",
      "population": null
    },
    {
      "id": 11155,
      "name": "Heathfield",
      "postcode": "5153",
      "state": "SA",
      "latitude": -35.0276425,
      "longitude": 138.7249002,
      "distanceKm": 23.44,
      "direction": "SE",
      "population": null
    },
    {
      "id": 11153,
      "name": "Bridgewater",
      "postcode": "5155",
      "state": "SA",
      "latitude": -35.0093879,
      "longitude": 138.7623775,
      "distanceKm": 23.98,
      "direction": "SE",
      "population": null
    },
    {
      "id": 12152,
      "name": "Chain Of Ponds",
      "postcode": "5231",
      "state": "SA",
      "latitude": -34.8196833,
      "longitude": 138.8423771,
      "distanceKm": 24,
      "direction": "E",
      "population": null
    },
    {
      "id": 11425,
      "name": "Angle Vale",
      "postcode": "5117",
      "state": "SA",
      "latitude": -34.6412198,
      "longitude": 138.6461526,
      "distanceKm": 24.06,
      "direction": "N",
      "population": null
    },
    {
      "id": 11900,
      "name": "Aberfoyle Park",
      "postcode": "5159",
      "state": "SA",
      "latitude": -35.0705635,
      "longitude": 138.6011311,
      "distanceKm": 24.34,
      "direction": "S",
      "population": 11911
    },
    {
      "id": 11844,
      "name": "Ambulance Ground",
      "postcode": "5155",
      "state": "SA",
      "latitude": -35.0037548,
      "longitude": 138.7775105,
      "distanceKm": 24.51,
      "direction": "SE",
      "population": null
    },
    {
      "id": 11927,
      "name": "Munno Para Downs",
      "postcode": "5115",
      "state": "SA",
      "latitude": -34.6474017,
      "longitude": 138.6860821,
      "distanceKm": 24.55,
      "direction": "NE",
      "population": null
    },
    {
      "id": 11848,
      "name": "Uleybury",
      "postcode": "5114",
      "state": "SA",
      "latitude": -34.6749527,
      "longitude": 138.7451684,
      "distanceKm": 24.6,
      "direction": "NE",
      "population": null
    },
    {
      "id": 11861,
      "name": "Trott Park",
      "postcode": "5158",
      "state": "SA",
      "latitude": -35.071312,
      "longitude": 138.5401404,
      "distanceKm": 24.67,
      "direction": "S",
      "population": null
    },
    {
      "id": 11087,
      "name": "Happy Valley",
      "postcode": "5159",
      "state": "SA",
      "latitude": -35.0765679,
      "longitude": 138.5757472,
      "distanceKm": 24.96,
      "direction": "S",
      "population": 13864
    },
    {
      "id": 12141,
      "name": "Port Gawler",
      "postcode": "5501",
      "state": "SA",
      "latitude": -34.6536109,
      "longitude": 138.4523762,
      "distanceKm": 25.01,
      "direction": "NW",
      "population": null
    },
    {
      "id": 11858,
      "name": "Hallett Cove",
      "postcode": "5158",
      "state": "SA",
      "latitude": -35.0726467,
      "longitude": 138.5110652,
      "distanceKm": 25.37,
      "direction": "S",
      "population": 12609
    },
    {
      "id": 11865,
      "name": "Scott Creek",
      "postcode": "5153",
      "state": "SA",
      "latitude": -35.0587698,
      "longitude": 138.7013733,
      "distanceKm": 25.39,
      "direction": "SE",
      "population": null
    },
    {
      "id": 11995,
      "name": "Humbug Scrub",
      "postcode": "5114",
      "state": "SA",
      "latitude": -34.7209998,
      "longitude": 138.8143131,
      "distanceKm": 25.67,
      "direction": "NE",
      "population": null
    },
    {
      "id": 11103,
      "name": "Sheidow Park",
      "postcode": "5158",
      "state": "SA",
      "latitude": -35.0792116,
      "longitude": 138.5273915,
      "distanceKm": 25.74,
      "direction": "S",
      "population": null
    },
    {
      "id": 11392,
      "name": "Kersbrook",
      "postcode": "5231",
      "state": "SA",
      "latitude": -34.7824379,
      "longitude": 138.8522407,
      "distanceKm": 25.81,
      "direction": "E",
      "population": null
    },
    {
      "id": 12030,
      "name": "Kudla",
      "postcode": "5115",
      "state": "SA",
      "latitude": -34.6410135,
      "longitude": 138.7041414,
      "distanceKm": 25.88,
      "direction": "NE",
      "population": null
    },
    {
      "id": 11990,
      "name": "Evanston South",
      "postcode": "5116",
      "state": "SA",
      "latitude": -34.6480626,
      "longitude": 138.726043,
      "distanceKm": 26.12,
      "direction": "NE",
      "population": null
    },
    {
      "id": 11819,
      "name": "Chandlers Hill",
      "postcode": "5159",
      "state": "SA",
      "latitude": -35.086519,
      "longitude": 138.6170105,
      "distanceKm": 26.24,
      "direction": "S",
      "population": null
    },
    {
      "id": 11842,
      "name": "Mylor Park Lands",
      "postcode": "5153",
      "state": "SA",
      "latitude": -35.0405139,
      "longitude": 138.7579599,
      "distanceKm": 26.35,
      "direction": "SE",
      "population": null
    },
    {
      "id": 11815,
      "name": "Reynella East",
      "postcode": "5161",
      "state": "SA",
      "latitude": -35.0880564,
      "longitude": 138.5527023,
      "distanceKm": 26.37,
      "direction": "S",
      "population": null
    },
    {
      "id": 11253,
      "name": "Bradbury",
      "postcode": "5153",
      "state": "SA",
      "latitude": -35.060311,
      "longitude": 138.7246899,
      "distanceKm": 26.52,
      "direction": "SE",
      "population": null
    },
    {
      "id": 11154,
      "name": "Mylor",
      "postcode": "5153",
      "state": "SA",
      "latitude": -35.0424606,
      "longitude": 138.7591513,
      "distanceKm": 26.59,
      "direction": "SE",
      "population": null
    },
    {
      "id": 12095,
      "name": "Worthing Copper Mine",
      "postcode": "5161",
      "state": "SA",
      "latitude": -35.0875757,
      "longitude": 138.5111493,
      "distanceKm": 26.98,
      "direction": "S",
      "population": null
    },
    {
      "id": 12000,
      "name": "Hillier",
      "postcode": "5116",
      "state": "SA",
      "latitude": -34.6233776,
      "longitude": 138.6948904,
      "distanceKm": 27.33,
      "direction": "NE",
      "population": null
    },